SALE TYPE,SOLD DATE,PROPERTY TYPE,ADDRESS,CITY,STATE OR PROVINCE,ZIP OR POSTAL CODE,PRICE,BEDS,BATHS,LOCATION,SQUARE FEET,LOT SIZE,YEAR BUILT,DAYS ON MARKET,$/SQUARE FEET,HOA/MONTH,STATUS,NEXT OPEN HOUSE START TIME,NEXT OPEN HOUSE END TIME,URL (SEE http://www.redfin.com/buy-a-home/comparative-market-analysis FOR INFO ON PRICING),SOURCE,MLS#,FAVORITE,INTERESTED,LATITUDE,LONGITUDE
MLS Listing,,Townhouse,14904 Bradwill Ct,Rockville,MD,20850,539000,4,3.5,STONEBRIDGE,1820,1500,1985,1,296,,Active,,,http://www.redfin.com/MD/Rockville/14904-Bradwill-Ct-20850/home/10616804,BRIGHT MLS,MDMC2020884,N,Y,39.1015159,-77.21987
MLS Listing,,Townhouse,6 Farragut Pl NW,Washington,DC,20011,645000,4,2.5,PETWORTH,1584,1512,1939,1,407,,Active,November-7-2021 12:00 PM,November-7-2021 02:00 PM,http://www.redfin.com/DC/Washington/6-Farragut-Pl-NW-20011/home/10069998,BRIGHT MLS,DCDC2019168,N,Y,38.9509535,-77.0093164
MLS Listing,,Townhouse,414 Delafield Pl NW,Washington,DC,20011,835000,4,3.5,PETWORTH,1653,1312,1925,1,505,,Active,November-5-2021 08:00 AM,November-5-2021 08:00 PM,http://www.redfin.com/DC/Washington/414-Delafield-Pl-NW-20011/home/10060540,BRIGHT MLS,DCDC2019414,N,Y,38.9490663,-77.0180562
MLS Listing,,Townhouse,7717 Marshall Heights Ct,Falls Church,VA,22043,760000,3,3.0,MARSHALL HEIGHTS,1600,1710,1984,1,475,75,Active,,,http://www.redfin.com/VA/Falls-Church/7717-Marshall-Heights-Ct-22043/home/9460173,BRIGHT MLS,VAFX2029244,N,Y,38.9048609,-77.210224
MLS Listing,,Condo/Co-op,1300 S Arlington Ridge Rd #717,Arlington,VA,22202,220000,0,1.0,THE CAVENDISH,518,,1958,1,425,478,Active,,,http://www.redfin.com/VA/Arlington/1300-S-Arlington-Ridge-Rd-22202/unit-717/home/11275478,BRIGHT MLS,VAAR2006952,N,Y,38.8617887,-77.0670146
MLS Listing,,Townhouse,1310 Spring Rd NW Unit A,Washington,DC,20010,719000,2,2.5,COLUMBIA HEIGHTS,1460,,1911,1,492,269,Active,November-7-2021 01:30 PM,November-7-2021 03:30 PM,http://www.redfin.com/DC/Washington/1310-Spring-Rd-NW-20010/unit-A/home/171549606,BRIGHT MLS,DCDC2017464,N,Y,38.9361309,-77.0301461
MLS Listing,,Condo/Co-op,2311 Pimmit Dr #519,Falls Church,VA,22043,254900,2,2.0,IDYLWOOD TOWERS,1182,,1974,1,216,768,Active,,,http://www.redfin.com/VA/Falls-Church/2311-Pimmit-Dr-22043/unit-519/home/9479450,BRIGHT MLS,VAFX2028262,N,Y,38.898166,-77.2051706
MLS Listing,,Single Family Residential,7639 Chancellor Way,Springfield,VA,22153,799000,5,3.5,SARATOGA,3522,8400,1978,1,227,6,Active,,,http://www.redfin.com/VA/Springfield/7639-Chancellor-Way-22153/home/9802911,BRIGHT MLS,VAFX2028378,N,Y,38.7481602,-77.2170507
MLS Listing,,Townhouse,15603 Steamboat Way,Silver Spring,MD,20906,595000,3,3.0,BRADFORD'S LANDING,1930,1633,2019,1,308,87,Active,,,http://www.redfin.com/MD/Silver-Spring/15603-Steamboat-Way-20906/home/148706447,BRIGHT MLS,MDMC2020396,N,Y,39.113424,-77.068789
MLS Listing,,Condo/Co-op,10203-A Willow Mist Ct,Oakton,VA,22124,349000,2,2.0,TREVOR HOUSE CONDO,1189,,1985,1,294,370,Active,November-6-2021 01:00 PM,November-6-2021 03:00 PM,http://www.redfin.com/VA/Oakton/10203A-Willow-Mist-Ct-22124/unit-73/home/177062763,BRIGHT MLS,VAFX2029004,N,Y,38.874678,-77.2970409
MLS Listing,,Townhouse,6230 Roudsby Ln,Alexandria,VA,22315,599999,3,3.5,KINGSTOWNE SEC 12A,2421,1870,1993,1,248,105,Active,November-7-2021 01:00 PM,November-7-2021 03:00 PM,http://www.redfin.com/VA/Alexandria/6230-Roudsby-Ln-22315/home/9786295,BRIGHT MLS,VAFX2028014,N,Y,38.756316,-77.15432
MLS Listing,,Condo/Co-op,10026 Mosby Woods Dr #329,Fairfax,VA,22030,215000,2,1.0,MOSBY WOODS GARDEN,984,,1963,1,218,329,Active,November-6-2021 01:00 PM,November-6-2021 03:00 PM,http://www.redfin.com/VA/Fairfax/10026-Mosby-Woods-Dr-22030/unit-329/home/12031062,BRIGHT MLS,VAFC2000656,N,Y,38.865757,-77.292383
MLS Listing,,Condo/Co-op,6032 Westchester Park Dr #301,College Park,MD,20740,195000,2,1.0,WESTCHESTER PARK,1105,,1967,1,176,670,Active,,,http://www.redfin.com/MD/College-Park/6032-Westchester-Park-Dr-20740/unit-301/home/11114249,BRIGHT MLS,MDPG2015722,N,Y,38.9912756,-76.901538
MLS Listing,,Single Family Residential,708 Anderson Ave,Rockville,MD,20850,629900,3,2.5,WEST END PARK,1884,9000,1964,1,334,,Active,,,http://www.redfin.com/MD/Rockville/708-Anderson-Ave-20850/home/10516725,BRIGHT MLS,MDMC2021340,N,Y,39.0867929,-77.1682653
MLS Listing,,Single Family Residential,10622 Runaway Ln,Great Falls,VA,22066,869500,4,2.5,LEXINGTON ESTATES,3252,20580,1976,1,267,21,Active,November-7-2021 01:00 PM,November-7-2021 03:00 PM,http://www.redfin.com/VA/Great-Falls/10622-Runaway-Ln-22066/home/9154265,BRIGHT MLS,VAFX2027318,N,Y,38.997841,-77.3077396
MLS Listing,,Townhouse,3727 Carrisa Ln,Olney,MD,20832,379900,3,2.5,OLNEY OAKS,1672,1870,1986,1,227,25,Active,,,http://www.redfin.com/MD/Olney/3727-Carrisa-Ln-20832/home/10719825,BRIGHT MLS,MDMC2021332,N,Y,39.155617,-77.07426
MLS Listing,,Townhouse,22340 Great Trail Ter,Sterling,VA,20164,439000,3,2.5,TRAILSIDE,2040,2614,1998,1,215,80,Active,November-6-2021 01:00 PM,November-6-2021 03:00 PM,http://www.redfin.com/VA/Sterling/22340-Great-Trail-Ter-20164/home/11971068,BRIGHT MLS,VALO2010804,N,Y,38.9985783,-77.4252275
MLS Listing,,Vacant Land,6816 Green Hollow Way,Highland,MD,20777,535000,,,HIGHLAND,,50530,,1,,,Active,,,http://www.redfin.com/MD/Highland/6816-Green-Hollow-Way-20777/home/10219312,BRIGHT MLS,MDHW2006634,N,Y,39.183024,-76.966875
MLS Listing,,Condo/Co-op,1952 3rd St NE #202,Washington,DC,20002,545000,2,2.0,ECKINGTON,1028,,1939,1,530,205,Active,November-6-2021 01:00 PM,November-6-2021 03:00 PM,http://www.redfin.com/DC/Washington/1952-3rd-St-NE-20002/unit-202/home/25507310,BRIGHT MLS,DCDC2019182,N,Y,38.9170795,-77.0024439
MLS Listing,,Single Family Residential,8335 Orange Ct,Alexandria,VA,22309,754900,4,2.5,RIVERSIDE ESTATES,2575,11516,1963,1,293,,Active,November-14-2021 01:00 PM,November-14-2021 03:00 PM,http://www.redfin.com/VA/Alexandria/8335-Orange-Ct-22309/home/9815842,BRIGHT MLS,VAFX2027518,N,Y,38.7290595,-77.0845289
MLS Listing,,Condo/Co-op,14220 Jib St #5142,Laurel,MD,20707,245000,2,2.0,BRIDGEPORT CONDO PHASE 3,990,,1989,1,247,344,Active,,,http://www.redfin.com/MD/Laurel/14220-Jib-St-20707/unit-5142/home/171697021,BRIGHT MLS,MDPG2016818,N,Y,39.0874176,-76.8679072
MLS Listing,,Condo/Co-op,7747 Donnybrook Ct #206,Annandale,VA,22003,190000,1,1.0,HERITAGE WOODS NORTH CON,656,,1961,1,290,329,Active,November-7-2021 01:00 PM,November-7-2021 03:00 PM,http://www.redfin.com/VA/Annandale/7747-Donnybrook-Ct-22003/unit-206/home/9713760,BRIGHT MLS,VAFX2017470,N,Y,38.830635,-77.213267
MLS Listing,,Townhouse,4535 Madison St,Riverdale,MD,20737,475000,3,2.5,EYA ARTS DISTRICT HYATTS,1436,706,2014,1,331,177,Active,November-5-2021 08:00 AM,November-5-2021 08:00 PM,http://www.redfin.com/MD/Riverdale-Park/4535-Madison-St-20737/home/23382388,BRIGHT MLS,MDPG2016472,N,Y,38.9582913,-76.9384353
MLS Listing,,Condo/Co-op,1570 Spring Gate #7108,Mclean,VA,22102,480000,2,2.0,GATES OF MCLEAN CONDO,1149,,1997,1,418,463,Active,,,http://www.redfin.com/VA/McLean/1570-Spring-Gate-Dr-22102/unit-7108/home/9844589,BRIGHT MLS,VAFX2028890,N,Y,38.9291364,-77.2097072
MLS Listing,,Townhouse,8828 Royal Doulton Ln,Fairfax,VA,22031,775000,3,3.5,WELLS ADDITION TO WELLS,2080,2166,2001,1,373,95,Active,,,http://www.redfin.com/VA/Fairfax/8828-Royal-Doulton-Ln-22031/home/9839604,BRIGHT MLS,VAFX2028540,N,Y,38.871562,-77.25002
MLS Listing,,Townhouse,22985 Fontwell Sq,Sterling,VA,20166,445000,3,3.0,PARKSIDE AT DULLES,1508,,2004,2,295,200,Active,November-7-2021 01:00 PM,November-7-2021 03:00 PM,http://www.redfin.com/VA/Sterling/22985-Fontwell-Sq-20166/unit-1007/home/12084868,BRIGHT MLS,VALO2010914,N,Y,38.9791985,-77.407938
MLS Listing,,Townhouse,7462 Larne Ln,Lorton,VA,22079,390000,3,2.5,SOUTHGATE WOODS TOWNHOUS,1280,1440,1971,2,305,67,Active,,,http://www.redfin.com/VA/Lorton/7462-Larne-Ln-22079/home/9824330,BRIGHT MLS,VAFX2028798,N,Y,38.713161,-77.199302
MLS Listing,,Townhouse,1375 Heritage Oak Way,Reston,VA,20194,700000,4,3.5,RESTON SEC 61 BLK 2 HERI,2084,2074,1989,2,336,110,Active,November-7-2021 01:00 PM,November-7-2021 03:00 PM,http://www.redfin.com/VA/Reston/1375-Heritage-Oak-Way-20194/home/9145870,BRIGHT MLS,VAFX2028904,N,Y,38.981071,-77.339639
MLS Listing,,Single Family Residential,6518 Kerns Rd,Falls Church,VA,22044,795000,4,3.0,SLEEPY HOLLOW ESTATES,2248,26843,1959,2,354,,Active,,,http://www.redfin.com/VA/Falls-Church/6518-Kerns-Rd-22044/home/9644055,BRIGHT MLS,VAFX2028416,N,Y,38.8548281,-77.1648505
MLS Listing,,Single Family Residential,5809 66th Ave,Riverdale,MD,20737,289999,2,1.0,EASTPINES,1080,6050,1948,2,269,,Active,November-6-2021 02:00 PM,November-6-2021 04:00 PM,http://www.redfin.com/MD/Riverdale/5809-66th-Ave-20737/home/11036364,BRIGHT MLS,MDPG2015326,N,Y,38.9581979,-76.9038236
MLS Listing,,Condo/Co-op,475 K St NW #910,Washington,DC,20001,569000,1,1.0,OLD CITY II,747,,2008,2,762,486,Active,,,http://www.redfin.com/DC/Washington/475-K-St-NW-20001/unit-910/home/21644938,BRIGHT MLS,DCDC2019420,N,Y,38.9028567,-77.0182344
MLS Listing,,Condo/Co-op,732 15th St SE #3,Washington,DC,20003,570000,1,1.0,OLD CITY I,714,,1926,2,798,298,Active,November-7-2021 01:30 PM,November-7-2021 03:30 PM,http://www.redfin.com/DC/Washington/732-15th-St-SE-20003/unit-3/home/62523616,BRIGHT MLS,DCDC2018224,N,Y,38.8800454,-76.9834989
MLS Listing,,Condo/Co-op,2001 15th St N #723,Arlington,VA,22201,504000,2,1.0,ODYSSEY,724,,2006,2,696,410,Active,November-6-2021 01:00 PM,November-6-2021 04:00 PM,http://www.redfin.com/VA/Arlington/2001-15th-St-N-22201/unit-723/home/22675376,BRIGHT MLS,VAAR2006892,N,Y,38.8912215,-77.081359
MLS Listing,,Townhouse,9838 Oakdale Woods Ct,Vienna,VA,22181,507500,3,1.5,OAKTON CLOISTERS,1222,1460,1978,3,415,81,Active,November-7-2021 01:00 PM,November-7-2021 03:00 PM,http://www.redfin.com/VA/Vienna/9838-Oakdale-Woods-Ct-22181/home/9525238,BRIGHT MLS,VAFX2028368,N,Y,38.879527,-77.285493
MLS Listing,,Single Family Residential,8635 Vernon Ave,Alexandria,VA,22309,680000,4,2.5,MOUNT VERNON HILLS,2240,8800,1975,4,304,,Active,,,http://www.redfin.com/VA/Alexandria/8635-Vernon-Ave-22309/home/162821292,BRIGHT MLS,VAFX2027846,N,Y,38.7223789,-77.0910034
MLS Listing,,Townhouse,4533 Superior Sq,Fairfax,VA,22033,425000,3,3.0,GATES OF FAIR LAKES COND,1687,,1997,4,252,523,Active,,,http://www.redfin.com/VA/Fairfax/4533-Superior-Sq-22033/home/17164503,BRIGHT MLS,VAFX2026024,N,Y,38.863014,-77.389973
MLS Listing,,Single Family Residential,3240 Norfolk Ln,Falls Church,VA,22042,585000,4,2.5,BROYHILL PARK,1488,10960,1954,5,393,,Active,,,http://www.redfin.com/VA/Falls-Church/3240-Norfolk-Ln-22042/home/9633070,BRIGHT MLS,VAFX2028550,N,Y,38.8587167,-77.2016446
MLS Listing,,Single Family Residential,5 Girard St NE,Washington,DC,20002,1299000,7,4.5,BROOKLAND,3440,1500,1916,6,378,,Active,,,http://www.redfin.com/DC/Washington/5-Girard-St-NE-20002/home/10071791,BRIGHT MLS,DCDC2017206,N,Y,38.925698,-77.008258
MLS Listing,,Condo/Co-op,5000 Battery Ln #903,Bethesda,MD,20814,1000000,3,2.5,MADISON PARK CODM,1747,,1989,6,572,1216,Active,,,http://www.redfin.com/MD/Bethesda/5000-Battery-Ln-20814/unit-903/home/10698749,BRIGHT MLS,MDMC2021010,N,Y,38.9916171,-77.1020856
MLS Listing,,Single Family Residential,90 Seneca Ridge Dr,Sterling,VA,20164,590000,4,2.5,SENECA CHASE,1782,11761,1984,6,331,,Active,November-5-2021 08:00 AM,November-5-2021 08:00 PM,http://www.redfin.com/VA/Sterling/90-Seneca-Ridge-Dr-20164/home/11940902,BRIGHT MLS,VALO2010988,N,Y,39.0310513,-77.3783117
MLS Listing,,Condo/Co-op,5501 Seminary Rd Unit 2304S,Falls Church,VA,22041,450000,3,2.5,SKYLINE SQUARE,1735,,1982,6,259,744,Active,,,http://www.redfin.com/VA/Falls-Church/5501-Seminary-Rd-22041/unit-2304S/home/9662081,BRIGHT MLS,VAFX2028332,N,Y,38.8419602,-77.1202465
MLS Listing,,Single Family Residential,500 S Highland St,Arlington,VA,22204,824900,3,1.5,ARLINGTON HEIGHTS,1700,5500,1937,6,485,,Active,,,http://www.redfin.com/VA/Arlington/500-S-Highland-St-22204/home/11262379,BRIGHT MLS,VAAR2006656,N,Y,38.8682824,-77.0907336
MLS Listing,,Condo/Co-op,4600 S Four Mile Run Dr #913,Arlington,VA,22204,220000,1,1.0,THE CARLTON,828,,1965,6,266,710,Active,November-7-2021 01:00 PM,November-7-2021 03:00 PM,http://www.redfin.com/VA/Arlington/4600-S-Four-Mile-Run-Dr-22204/unit-913/home/11266482,BRIGHT MLS,VAAR2006400,N,Y,38.8549049,-77.1073903
MLS Listing,,Condo/Co-op,112 Roberts Ln #300,Alexandria,VA,22314,409900,3,2.0,FORT ELLSWORTH,1282,,1974,6,320,655,Active,,,http://www.redfin.com/VA/Alexandria/112-Roberts-Ln-22314/unit-300/home/11850702,BRIGHT MLS,VAAX2005080,N,Y,38.8075727,-77.0720759
MLS Listing,,Townhouse,632 E St SE,Washington,DC,20003,1200000,3,3.0,CAPITOL HILL,1710,1237,1962,6,702,,Active,November-5-2021 08:00 AM,November-5-2021 08:00 PM,http://www.redfin.com/DC/Washington/632-E-St-SE-20003/home/9900555,BRIGHT MLS,DCDC2018806,N,Y,38.8829249,-76.9973258
MLS Listing,,Townhouse,3105 Valley Dr,Alexandria,VA,22302,470000,3,1.0,PARKFAIRFAX,1114,,1941,7,422,581,Active,,,http://www.redfin.com/VA/Alexandria/3105-Valley-Dr-22302/home/11862170,BRIGHT MLS,VAAX2005042,N,Y,38.8327847,-77.079433
MLS Listing,,Single Family Residential,3904 Gallows Rd,Annandale,VA,22003,699000,3,2.5,KENWOOD,1766,9600,1959,7,396,,Active,November-6-2021 01:00 PM,November-6-2021 03:00 PM,http://www.redfin.com/VA/Annandale/3904-Gallows-Rd-22003/home/9639522,BRIGHT MLS,VAFX2000659,N,Y,38.8387978,-77.1948617
MLS Listing,,Condo/Co-op,4545 Macarthur Blvd NW #202,Washington,DC,20007,300000,1,1.0,PALISADES,736,,1967,7,408,510,Active,November-7-2021 12:00 PM,November-7-2021 02:00 PM,http://www.redfin.com/DC/Washington/4545-MacArthur-Blvd-NW-20007/unit-202/home/9939876,BRIGHT MLS,DCDC2018798,N,Y,38.9091902,-77.0866197
MLS Listing,,Condo/Co-op,1417 Newton St NW #504,Washington,DC,20010,385000,1,1.0,COLUMBIA HEIGHTS,580,,1927,7,664,288,Active,November-7-2021 01:00 PM,November-7-2021 03:00 PM,http://www.redfin.com/DC/Washington/1417-Newton-St-NW-20010/unit-504/home/21647598,BRIGHT MLS,DCDC2018634,N,Y,38.9323587,-77.0335528
MLS Listing,,Single Family Residential,6004 44th Ave,Hyattsville,MD,20781,665000,4,3.0,Hyattsville,2100,7500,1911,7,317,,Active,,,http://www.redfin.com/MD/Hyattsville/6004-44th-Ave-20781/home/10944270,BRIGHT MLS,MDPG2015198,N,Y,38.9598083,-76.9420028
MLS Listing,,Condo/Co-op,520 John Carlyle St #331,Alexandria,VA,22314,424900,1,1.0,CONDOS AT CARLYLE SQUARE,730,,2007,7,582,489,Active,,,http://www.redfin.com/VA/Alexandria/520-John-Carlyle-St-22314/unit-331/home/17061785,BRIGHT MLS,VAAX2004988,N,Y,38.8019355,-77.0615516
MLS Listing,,Townhouse,811 Delaware Ave SW #230,Washington,DC,20024,749900,3,2.0,R.L.A. SW,1467,,1961,7,511,630,Active,November-7-2021 01:30 PM,November-7-2021 03:30 PM,http://www.redfin.com/DC/Washington/811-Delaware-Ave-SW-20024/unit-230/home/9885689,BRIGHT MLS,DCDC2017446,N,Y,38.880596,-77.014124
MLS Listing,,Townhouse,625 Kensington Pl NE,Washington,DC,20011,645000,3,1.5,RIGGS PARK,1502,2090,1952,8,429,,Active,November-5-2021 08:00 AM,November-5-2021 08:00 PM,http://www.redfin.com/DC/Washington/625-Kensington-Pl-NE-20011/home/10081332,BRIGHT MLS,DCDC2018416,N,Y,38.9578467,-76.9968533
MLS Listing,,Townhouse,4835 28th St S Unit A,Arlington,VA,22206,520000,2,2.0,FAIRLINGTON VIL,1383,,1944,8,376,412,Active,,,http://www.redfin.com/VA/Arlington/4835-28th-St-S-22206/unit-A/home/11267883,BRIGHT MLS,VAAR2006420,N,Y,38.841732,-77.103282
MLS Listing,,Single Family Residential,11113 Dodson Ln,Silver Spring,MD,20902,450000,3,1.5,WHEATON FOREST,1634,6443,1953,8,275,,Active,,,http://www.redfin.com/MD/Silver-Spring/11113-Dodson-Ln-20902/home/11031608,BRIGHT MLS,MDMC2020472,N,Y,39.038403,-77.0443704
MLS Listing,,Condo/Co-op,1801 Otis St NE #4,Washington,DC,20018,625000,3,2.0,WOODRIDGE,1159,,2021,8,539,367,Active,,,http://www.redfin.com/DC/Washington/1801-Otis-St-NE-20018/unit-4/home/176801619,BRIGHT MLS,DCDC2017964,N,Y,38.9349139,-76.9794037
MLS Listing,,Townhouse,9942 Longford Ct,Vienna,VA,22181,549000,3,3.5,WATERFORD SEC 2,1423,1423,1976,8,386,111,Active,,,http://www.redfin.com/VA/Vienna/9942-Longford-Ct-22181/home/9524776,BRIGHT MLS,VAFX2027270,N,Y,38.878316,-77.28646
MLS Listing,,Townhouse,607 Rittenhouse St NW,Washington,DC,20011,575000,3,1.5,BRIGHTWOOD,1054,1409,1925,8,546,,Active,,,http://www.redfin.com/DC/Washington/607-Rittenhouse-St-NW-20011/home/10055308,BRIGHT MLS,DCDC2018850,N,Y,38.9651229,-77.0215533
MLS Listing,,Townhouse,5927 Kirkcaldy Ln,Alexandria,VA,22315,549000,2,3.0,KINGSTOWNE SEC 34D,2022,1335,2000,8,272,120,Active,,,http://www.redfin.com/VA/Alexandria/5927-Kirkcaldy-Ln-22315/home/9783485,BRIGHT MLS,VAFX2028266,N,Y,38.766891,-77.138757
MLS Listing,,Condo/Co-op,2707 Adams Mill Rd NW #204,Washington,DC,20009,370000,1,1.0,MOUNT PLEASANT,650,,1927,8,569,576,Active,November-7-2021 12:00 PM,November-7-2021 02:00 PM,http://www.redfin.com/DC/Washington/2707-Adams-Mill-Rd-NW-20009/unit-204/home/26846121,BRIGHT MLS,DCDC2000055,N,Y,38.9244372,-77.0444379
MLS Listing,,Condo/Co-op,1314 Massachusetts Ave NW Unit G-08,Washington,DC,20005,254900,0,1.0,CENTRAL,315,,1947,8,809,184,Active,,,http://www.redfin.com/DC/Washington/1314-Massachusetts-Ave-NW-20005/unit-G-08/home/12534165,BRIGHT MLS,DCDC2000377,N,Y,38.9048334,-77.0306739
MLS Listing,,Townhouse,50 Quincy Pl NE,Washington,DC,20002,925000,4,2.0,ECKINGTON,2358,1500,1900,8,392,,Active,November-6-2021 02:00 PM,November-6-2021 05:00 PM,http://www.redfin.com/DC/Washington/50-Quincy-Pl-NE-20002/home/10072849,BRIGHT MLS,DCDC2001563,N,Y,38.9120205,-77.0070333
MLS Listing,,Single Family Residential,4005 N Richmond St,Arlington,VA,22207,1850000,5,4.5,ARLINGWOOD,4700,8856,2011,8,394,366,Active,,,http://www.redfin.com/VA/Arlington/4005-N-Richmond-St-22207/home/23385528,BRIGHT MLS,VAAR2006462,N,Y,38.927179,-77.1218647
MLS Listing,,Townhouse,8023 Sleepy View Ln,Springfield,VA,22153,490000,3,3.5,PT SARATOGA TOWNHOUSES,1584,1760,1979,8,309,,Active,,,http://www.redfin.com/VA/Springfield/8023-Sleepy-View-Ln-22153/home/9803238,BRIGHT MLS,VAFX2027090,N,Y,38.739211,-77.21753
MLS Listing,,Single Family Residential,2603 Arvin St,Silver Spring,MD,20902,599900,5,3.0,WHEATON HILLS,2499,6090,1949,9,240,,Active,November-5-2021 08:00 AM,November-5-2021 08:00 PM,http://www.redfin.com/MD/Silver-Spring/2603-Arvin-St-20902/home/11007853,BRIGHT MLS,MDMC2019470,N,Y,39.0465885,-77.0537704
MLS Listing,,Townhouse,924 4th St SE,Washington,DC,20003,945000,3,2.0,OLD CITY I,1540,725,2010,9,614,90,Active,November-6-2021 12:00 PM,November-6-2021 02:00 PM,http://www.redfin.com/DC/Washington/924-4th-St-SE-20003/home/39955882,BRIGHT MLS,DCDC2017968,N,Y,38.8788857,-77.0000261
MLS Listing,,Townhouse,508 E Luray Ave,Alexandria,VA,22301,709000,3,2.0,BRENTON,1200,1504,1944,10,591,,Active,,,http://www.redfin.com/VA/Alexandria/508-E-Luray-Ave-22301/home/22668757,BRIGHT MLS,VAAX2004840,N,Y,38.8183417,-77.0544424
MLS Listing,,Townhouse,5001 Domain Pl #2,Alexandria,VA,22311,595000,3,3.0,DOMAIN,2070,,1975,10,287,117,Active,,,http://www.redfin.com/VA/Alexandria/5001-Domain-Pl-22311/unit-2/home/39856654,BRIGHT MLS,VAAX2000215,N,Y,38.8390311,-77.1144526
MLS Listing,,Condo/Co-op,5750 Bou Ave #1614,Rockville,MD,20852,598000,2,2.0,MIDTOWN BETHESDA NORTH C,1611,,2007,12,371,1009,Active,,,http://www.redfin.com/MD/Rockville/5750-Bou-Ave-20852/unit-1614/home/23467603,BRIGHT MLS,MDMC2020194,N,Y,39.0568655,-77.1167645
MLS Listing,,Townhouse,3925 Charles Ave,Alexandria,VA,22305,799000,3,3.5,SUNNYSIDE,2208,1850,1993,13,362,,Active,,,http://www.redfin.com/VA/Alexandria/3925-Charles-Ave-22305/home/11869469,BRIGHT MLS,VAAX2004912,N,Y,38.8416703,-77.0654833
MLS Listing,,Vacant Land,2017 Rear 2nd St NE,Washington,DC,20002,292500,,,ECKINGTON,,4751,,13,,,Active,,,http://www.redfin.com/DC/Washington/2017-2nd-St-NE-20002/unit-B/home/177053203,BRIGHT MLS,DCDC2018262,N,Y,38.9173401,-77.0032425
MLS Listing,,Condo/Co-op,5916 Founders Hill Dr #202,Alexandria,VA,22310,369999,2,2.0,FOUNDERS WALK CONDO,1069,,1996,13,346,345,Active,,,http://www.redfin.com/VA/Alexandria/5916-Founders-Hill-Dr-22310/unit-202/home/9755202,BRIGHT MLS,VAFX2027578,N,Y,38.791195,-77.140721
MLS Listing,,Condo/Co-op,307 Taylor St NW #1,Washington,DC,20011,555000,2,2.0,PETWORTH,1022,,1922,13,543,240,Active,,,http://www.redfin.com/DC/Washington/307-Taylor-St-NW-20011/unit-1/home/113673596,BRIGHT MLS,DCDC2018240,N,Y,38.9412237,-77.0161801
MLS Listing,,Townhouse,1371 Powhatan St,Alexandria,VA,22314,1049990,3,4.0,THE TOWNS AT 1333,2292,,2017,13,458,215,Active,,,http://www.redfin.com/VA/Alexandria/1371-Powhatan-St-22314/home/145722841,BRIGHT MLS,VAAX2004888,N,Y,38.8198558,-77.047556
MLS Listing,,Single Family Residential,2915 Harrison Rd,Falls Church,VA,22042,849000,5,4.0,TYLER PARK,2137,7865,1946,13,397,,Active,November-7-2021 01:00 PM,November-7-2021 04:00 PM,http://www.redfin.com/VA/Falls-Church/2915-Harrison-Rd-22042/home/9556753,BRIGHT MLS,VAFX2026458,N,Y,38.8729247,-77.1951894
MLS Listing,,Single Family Residential,9909 E Light Dr,Silver Spring,MD,20903,475000,5,2.0,OAKVIEW,1842,7436,1954,13,258,,Active,,,http://www.redfin.com/MD/Silver-Spring/9909-E-Light-Dr-20903/home/10561225,BRIGHT MLS,MDMC2020382,N,Y,39.0189658,-76.9835452
MLS Listing,,Townhouse,2049 Winged Foot Ct,Reston,VA,20191,509900,3,2.5,RESTON SEC 44 BLK 1C GLE,1449,1760,1977,13,352,105,Active,,,http://www.redfin.com/VA/Reston/2049-Winged-Foot-Ct-20191/home/9334785,BRIGHT MLS,VAFX2026938,N,Y,38.939938,-77.346412
MLS Listing,,Condo/Co-op,50 Florida Ave NE #409,Washington,DC,20002,520000,1,1.0,ECKINGTON,655,,2019,14,794,300,Active,,,http://www.redfin.com/DC/Washington/50-Florida-Ave-NE-20002/unit-409/home/169197305,BRIGHT MLS,DCDC2017184,N,Y,38.910235,-77.0072321
MLS Listing,,Condo/Co-op,900 N Stafford St #1701,Arlington,VA,22203,324900,1,1.0,ALTA VISTA,595,,1989,14,546,372,Active,,,http://www.redfin.com/VA/Arlington/900-N-Stafford-St-22203/unit-1701/home/11246080,BRIGHT MLS,VAAR2006330,N,Y,38.8817216,-77.1108967
MLS Listing,,Condo/Co-op,4200 Cathedral Ave NW #316,Washington,DC,20016,299900,2,1.0,WESLEY HEIGHTS,935,,1957,14,321,907,Active,,,http://www.redfin.com/DC/Washington/4200-Cathedral-Ave-NW-20016/unit-316/home/9958160,BRIGHT MLS,DCDC2017518,N,Y,38.9297268,-77.0829829
MLS Listing,,Condo/Co-op,2911 S Dinwiddie St Unit B1,Arlington,VA,22206,415000,2,1.0,FAIRLINGTON VILLAGE,1031,,1948,14,403,342,Active,,,http://www.redfin.com/VA/Arlington/2911-S-Dinwiddie-St-22206/unit-B1/home/11861517,BRIGHT MLS,VAAX2004766,N,Y,38.8393583,-77.1041261
MLS Listing,,Condo/Co-op,3015 Nicosh Cir #2104,Falls Church,VA,22042,382000,2,2.0,HIGH POINTE AT JEFFERSON,1108,,2000,15,345,440,Active,,,http://www.redfin.com/VA/Falls-Church/3015-Nicosh-Cir-22042/unit-2104/home/9852024,BRIGHT MLS,VAFX2001779,N,Y,38.869094,-77.2212092
MLS Listing,,Townhouse,9487 Clocktower Ln,Columbia,MD,21046,399900,3,2.5,VILLAGE OF KINGS CONTRIVANCE,1992,1785,1984,15,201,146,Active,,,http://www.redfin.com/MD/Columbia/9487-Clocktower-Ln-21046/home/9988467,BRIGHT MLS,MDHW2005900,N,Y,39.164004,-76.843369
MLS Listing,,Townhouse,36 Ellsworth Hts,Silver Spring,MD,20910,1075000,4,3.0,CHELSEA HEIGHTS,2627,1365,2016,15,409,152,Active,,,http://www.redfin.com/MD/Silver-Spring/36-Ellsworth-Heights-St-20910/home/144686068,BRIGHT MLS,MDMC2013926,N,Y,38.9991215,-77.0235382
MLS Listing,,Single Family Residential,2923 23rd St S,Arlington,VA,22206,938000,3,3.0,NAUCK GREEN VALLEY,2790,5127,1947,15,336,,Active,,,http://www.redfin.com/VA/Arlington/2923-23rd-St-S-22206/home/11272025,BRIGHT MLS,VAAR2006294,N,Y,38.8494939,-77.083631
MLS Listing,,Townhouse,2217 Chamblee Pl,Herndon,VA,20170,350000,3,1.5,REFLECTION LAKE,1114,1260,1971,15,314,212,Active,November-5-2021 08:00 AM,November-5-2021 08:00 PM,http://www.redfin.com/VA/Herndon/2217-Chamblee-Pl-20170/home/9169600,BRIGHT MLS,VAFX2026258,N,Y,38.9626389,-77.4061944
MLS Listing,,Single Family Residential,7604 Post Rd,Hanover,MD,21076,449900,4,3.0,HANOVER,2700,11979,1915,15,167,,Active,,,http://www.redfin.com/MD/Hanover/7604-Post-Rd-21076/home/10319141,BRIGHT MLS,MDAA2012240,N,Y,39.1499153,-76.7127957
MLS Listing,,Condo/Co-op,7505 Ashby Ln Unit B,Alexandria,VA,22315,385000,2,2.0,STRATFORD PLACE AT KINGS,1206,,1990,15,319,404,Active,,,http://www.redfin.com/VA/Alexandria/7505-Ashby-Ln-22315/unit-B/home/9786110,BRIGHT MLS,VAFX2025322,N,Y,38.753423,-77.149271
MLS Listing,,Single Family Residential,5115 Wissioming Rd,Bethesda,MD,20816,1050000,3,3.0,GLEN ECHO HEIGHTS,2061,5946,1939,16,509,,Active,November-5-2021 08:00 AM,November-5-2021 08:00 PM,http://www.redfin.com/MD/Bethesda/5115-Wissioming-Rd-20816/home/10648185,BRIGHT MLS,MDMC2001453,N,Y,38.957083,-77.126838
MLS Listing,,Condo/Co-op,2451 Midtown #901,Alexandria,VA,22303,414000,2,2.0,MIDTOWN ALEXANDRIA STATI,1078,,2007,16,384,544,Active,,,http://www.redfin.com/VA/Alexandria/2451-Midtown-Ave-22303/unit-901/home/19001786,BRIGHT MLS,VAFX2001543,N,Y,38.7966107,-77.0742479
MLS Listing,,Condo/Co-op,2001 15th St N #1111,Arlington,VA,22201,1185000,2,2.0,ARLINGTON,1415,,2006,16,837,852,Active,,,http://www.redfin.com/VA/Arlington/2001-15th-St-N-22201/unit-1111/home/12041345,BRIGHT MLS,VAAR2006224,N,Y,38.8912215,-77.081359
MLS Listing,,Single Family Residential,3502 Norris Pl,Alexandria,VA,22305,775000,4,1.0,BEVERLY HILLS,1483,5016,1938,16,523,,Active,,,http://www.redfin.com/VA/Alexandria/3502-Norris-Pl-22305/home/11849092,BRIGHT MLS,VAAX2004758,N,Y,38.8379273,-77.0664525
MLS Listing,,Condo/Co-op,525 Water St SW #328,Washington,DC,20024,730000,2,2.0,R.L.A. SW,831,,2016,17,878,681,Active,,,http://www.redfin.com/DC/Washington/525-Water-St-SW-20024/unit-328/home/109255976,BRIGHT MLS,DCDC2017138,N,Y,38.8760095,-77.0203086
MLS Listing,,Condo/Co-op,1021 N Garfield St #519,Arlington,VA,22201,514900,1,1.0,CLARENDON 1021,746,,2005,17,690,393,Active,,,http://www.redfin.com/VA/Arlington/1021-N-Garfield-St-22201/unit-519/home/11281323,BRIGHT MLS,VAAR2006296,N,Y,38.8853454,-77.0934087
MLS Listing,,Condo/Co-op,1021 Arlington Blvd #927,Arlington,VA,22209,129900,0,1.0,RIVER PLACE,383,,1955,17,339,329,Active,,,http://www.redfin.com/VA/Arlington/1021-Arlington-Blvd-22209/unit-927/home/11254001,BRIGHT MLS,VAAR2000363,N,Y,38.8929957,-77.0689033
MLS Listing,,Condo/Co-op,10500 Rockville Unit G08,Rockville,MD,20852,200000,1,1.0,GROSVENOR PARK II,912,,1965,17,219,765,Active,,,http://www.redfin.com/MD/Rockville/10500-Rockville-Pike-20852/unit-G08/home/10529203,BRIGHT MLS,MDMC2001175,N,Y,39.0294152,-77.1054123
MLS Listing,,Townhouse,21793 Canfield Ter,Sterling,VA,20164,510000,3,3.5,WOODSTONE,2551,1742,1991,17,200,59,Active,,,http://www.redfin.com/VA/Sterling/21793-Canfield-Ter-20164/home/11947696,BRIGHT MLS,VALO2009770,N,Y,39.01171,-77.381807
MLS Listing,,Townhouse,8900 16th St,Silver Spring,MD,20910,449500,3,2.5,WOODSIDE VILLAGE,1266,,1965,18,355,594,Active,,,http://www.redfin.com/MD/Silver-Spring/8900-16th-St-20910/unit-8900/home/10979720,BRIGHT MLS,MDMC2001141,N,Y,39.0022019,-77.0404833
MLS Listing,,Single Family Residential,11801 Plantation,Great Falls,VA,22066,1875000,5,4.5,SUGARLAND RUN,6482,217800,1989,20,289,,Active,,,http://www.redfin.com/VA/Great-Falls/11801-Plantation-Dr-22066/home/9073219,BRIGHT MLS,VAFX2001403,N,Y,39.0220231,-77.3546504
MLS Listing,,Condo/Co-op,3701 Connecticut Ave NW #504,Washington,DC,20008,219000,0,1.0,FOREST HILLS,433,,1951,20,506,467,Active,,,http://www.redfin.com/DC/Washington/3701-Connecticut-Ave-NW-20008/unit-504/home/9991060,BRIGHT MLS,DCDC2000757,N,Y,38.9383349,-77.0592347
MLS Listing,,Single Family Residential,104 Dove Tree,Sterling,VA,20164,600000,4,2.5,OAK TREE,1963,10890,1978,20,306,57,Active,,,http://www.redfin.com/VA/Sterling/104-Dove-Tree-Ct-20164/home/11956400,BRIGHT MLS,VALO2000699,N,Y,39.0108534,-77.3879094
MLS Listing,,Condo/Co-op,2451 Midtown Ave #1025,Alexandria,VA,22303,319900,1,1.0,MIDTOWN ALEXANDRIA STATI,805,,2007,20,397,373,Active,,,http://www.redfin.com/VA/Alexandria/2451-Midtown-Ave-22303/unit-1025/home/22060305,BRIGHT MLS,VAFX2026288,N,Y,38.7966107,-77.0742479
MLS Listing,,Single Family Residential,3914 Pender Spring Dr,Fairfax,VA,22033,1199000,5,3.5,SMC PENDERBROOK,4522,17478,2000,20,265,83,Active,,,http://www.redfin.com/VA/Fairfax/3914-Pender-Spring-Dr-22033/home/9517792,BRIGHT MLS,VAFX2000211,N,Y,38.8641246,-77.350097
MLS Listing,,Condo/Co-op,1412 Chapin St NW #5,Washington,DC,20009,495000,1,1.0,COLUMBIA HEIGHTS,435,,2015,20,1138,245,Active,,,http://www.redfin.com/DC/Washington/1412-Chapin-St-NW-20009/unit-5/home/113745016,BRIGHT MLS,DCDC2000683,N,Y,38.9215183,-77.0326986
MLS Listing,,Townhouse,817 Quackenbos St NW,Washington,DC,20011,774900,3,2.5,BRIGHTWOOD,1939,1820,1923,20,400,,Active,,,http://www.redfin.com/DC/Washington/817-Quackenbos-St-NW-20011/home/10038812,BRIGHT MLS,DCDC2001017,N,Y,38.9638989,-77.0251636
MLS Listing,,Condo/Co-op,1001 N Randolph St #108,Arlington,VA,22201,405000,1,1.0,EASTVIEW AT BALLSTON METRO,670,,2005,21,604,465,Active,,,http://www.redfin.com/VA/Arlington/1001-N-Randolph-St-22201/unit-108/home/11280347,BRIGHT MLS,VAAR2000309,N,Y,38.8831015,-77.1092334
MLS Listing,,Townhouse,2862 Abingdon,Arlington,VA,22206,515000,2,2.0,FAIRLINGTON VIL,1383,,1944,21,372,412,Active,November-6-2021 01:00 PM,November-6-2021 03:00 PM,http://www.redfin.com/VA/Arlington/2862-S-Abingdon-St-22206/home/11268448,BRIGHT MLS,VAAR2005316,N,Y,38.8405472,-77.0993097
MLS Listing,,Townhouse,2836 S Meade St,Arlington,VA,22206,570000,2,2.0,OLDE FACTORY,1200,,1983,21,475,125,Active,,,http://www.redfin.com/VA/Arlington/2836-S-Meade-St-22206/home/11277805,BRIGHT MLS,VAAR2000421,N,Y,38.845016,-77.070209
MLS Listing,,Townhouse,3820 Evans Trail Ct,Beltsville,MD,20705,319000,3,1.5,TIMBERLINE PLAT TWO,1080,1500,1986,21,295,84,Active,,,http://www.redfin.com/MD/Beltsville/3820-Evans-Trail-Ct-20705/home/10524777,BRIGHT MLS,MDPG2000559,N,Y,39.044029,-76.938215
MLS Listing,,Townhouse,1226 Wylie St NE,Washington,DC,20002,599000,2,1.0,OLD CITY I,810,660,1900,21,740,,Active,,,http://www.redfin.com/DC/Washington/1226-Wylie-St-NE-20002/home/9909819,BRIGHT MLS,DCDC2001007,N,Y,38.9008502,-76.9892039
MLS Listing,,Single Family Residential,5309 Easton Dr,Springfield,VA,22151,644000,4,2.0,NORTH SPRINGFIELD,2315,10560,1956,21,278,,Active,November-7-2021 01:00 PM,November-7-2021 04:00 PM,http://www.redfin.com/VA/Springfield/5309-Easton-Dr-22151/home/9720359,BRIGHT MLS,VAFX2000835,N,Y,38.8064393,-77.1955804
MLS Listing,,Condo/Co-op,3101 N Hampton Dr #315,Alexandria,VA,22302,249900,1,1.0,NORTHAMPTON PLACE,648,,2004,22,386,484,Active,,,http://www.redfin.com/VA/Alexandria/3101-N-Hampton-Dr-22302/unit-315/home/11877231,BRIGHT MLS,VAAX2000311,N,Y,38.8381428,-77.1055022
MLS Listing,,Townhouse,6 Snows Ct NW,Washington,DC,20037,725000,2,1.0,FOGGY BOTTOM,702,540,1953,22,1033,,Active,,,http://www.redfin.com/DC/Washington/6-Snows-Ct-NW-20037/home/9043682,BRIGHT MLS,DCDC2000781,N,Y,38.9015806,-77.0524479
MLS Listing,,Single Family Residential,2909 Brook Dr,Falls Church,VA,22042,890000,4,3.0,HILLWOOD,2688,5582,1949,22,331,,Active,,,http://www.redfin.com/VA/Falls-Church/2909-Brook-Dr-22042/home/9560206,BRIGHT MLS,VAFX2001117,N,Y,38.8730082,-77.166513
MLS Listing,,Single Family Residential,9821 Glen,Potomac,MD,20854,999000,4,3.5,GLEN OAKS,3742,15000,1973,23,267,,Active,,,http://www.redfin.com/MD/Rockville/9821-Glen-Rd-20854/home/10895551,BRIGHT MLS,MDMC2018212,N,Y,39.0472208,-77.2034413
MLS Listing,,Townhouse,10386 Bridgetown Pl #126,Burke,VA,22015,409000,2,2.5,OAKWOOD COMMONS BURKE CE,988,,1984,23,414,119,Active,,,http://www.redfin.com/VA/Burke/10386-Bridgetown-Pl-22015/unit-126/home/9730415,BRIGHT MLS,VAFX2001091,N,Y,38.791907,-77.301318
MLS Listing,,Townhouse,2730 Manorhaven Ct,Alexandria,VA,22306,469000,4,2.5,MT WOODLEY MANOR SEC,1365,1453,1983,23,344,46,Active,,,http://www.redfin.com/VA/Alexandria/2730-Manorhaven-Ct-22306/home/9817386,BRIGHT MLS,VAFX2001137,N,Y,38.744382,-77.078827
MLS Listing,,Condo/Co-op,6137 Leesburg Pike #103,Falls Church,VA,22041,225000,2,1.0,LAFAYETTE PARK CONDO,850,,1964,23,265,557,Active,,,http://www.redfin.com/VA/Falls-Church/6137-Leesburg-Pike-22041/unit-103/home/9646283,BRIGHT MLS,VAFX2026080,N,Y,38.8599034,-77.1471232
MLS Listing,,Condo/Co-op,6940 Fairfax Dr #406,Arlington,VA,22213,480000,2,2.0,FALLS STATION,986,,1995,24,487,377,Active,,,http://www.redfin.com/VA/Arlington/6940-Fairfax-Dr-22213/unit-406/home/11239410,BRIGHT MLS,VAAR2005904,N,Y,38.8889136,-77.1645584
MLS Listing,,Townhouse,12169 Waveland St,Fairfax,VA,22033,749000,3,3.5,CENTERPOINTE III,2265,1936,2010,26,331,154,Active,,,http://www.redfin.com/VA/Fairfax/12169-Waveland-St-22033/home/21708476,BRIGHT MLS,VAFX2000293,N,Y,38.864405,-77.366013
MLS Listing,,Condo/Co-op,3039 Macomb St NW Unit 3A,Washington,DC,20008,199900,0,1.0,CLEVELAND PARK,370,,1923,27,540,356,Active,,,http://www.redfin.com/DC/Washington/3039-Macomb-St-NW-20008/unit-3A/home/17454201,BRIGHT MLS,DCDC2000595,N,Y,38.9338192,-77.0615282
MLS Listing,,Condo/Co-op,1630 D St SE #1,Washington,DC,20003,459000,2,1.0,OLD CITY I,781,,1930,27,588,360,Active,,,http://www.redfin.com/DC/Washington/1630-D-St-SE-20003/unit-1/home/23062863,BRIGHT MLS,DCDC2017016,N,Y,38.8843232,-76.9811827
MLS Listing,,Townhouse,4803 8th St NW,Washington,DC,20011,879900,4,3.5,PETWORTH,1845,1191,1925,27,477,,Active,,,http://www.redfin.com/DC/Washington/4803-8th-St-NW-20011/home/10051480,BRIGHT MLS,DCDC2000717,N,Y,38.948556,-77.0234427
MLS Listing,,Single Family Residential,2508 N Chambliss St,Alexandria,VA,22311,999000,5,3.5,HOFFMAN PROPERTY,3608,22215,1982,27,277,,Active,,,http://www.redfin.com/VA/Alexandria/2508-N-Chambliss-St-22311/home/9652813,BRIGHT MLS,VAFX2000821,N,Y,38.8358064,-77.1285121
MLS Listing,,Single Family Residential,3700 Cathedral Ave NW,Washington,DC,20016,2690000,5,3.5,OBSERVATORY CIRCLE,4754,,2002,27,566,,Active,,,http://www.redfin.com/DC/Washington/3700-Cathedral-Ave-NW-20016/home/10186823,BRIGHT MLS,DCDC2015816,N,Y,38.9289356,-77.0743886
MLS Listing,,Single Family Residential,2639 Steeplechase Dr,Reston,VA,20191,899900,6,3.5,RESTON,3000,26875,1971,27,300,59,Active,,,http://www.redfin.com/VA/Reston/2639-Steeplechase-Dr-20191/home/9346384,BRIGHT MLS,VAFX2000797,N,Y,38.9178662,-77.3657976
MLS Listing,,Condo/Co-op,3001 Veazey Ter NW #918,Washington,DC,20008,338000,1,1.0,FOREST HILLS,1115,,1967,27,303,857,Active,November-7-2021 02:30 PM,November-7-2021 04:30 PM,http://www.redfin.com/DC/Washington/3001-Veazey-Ter-NW-20008/unit-918/home/40334379,BRIGHT MLS,DCDC2000111,N,Y,38.9444006,-77.0616705
MLS Listing,,Condo/Co-op,12000 Market St #138,Reston,VA,20190,484900,2,2.0,SAVOY AT RESTON TOWN CEN,1150,,2004,27,422,488,Active,,,http://www.redfin.com/VA/Reston/12000-Market-St-20190/unit-138/home/9848713,BRIGHT MLS,VAFX2026076,N,Y,38.9589437,-77.3624072
MLS Listing,,Condo/Co-op,10101 Grosvenor Pl #1104,Rockville,MD,20852,285000,1,1.0,10101 GROSVENOR PARK COD,925,,1986,28,308,541,Active,,,http://www.redfin.com/MD/Rockville/10101-Grosvenor-Pl-20852/unit-1104/home/11209003,BRIGHT MLS,MDMC2018924,N,Y,39.0232354,-77.1046031
MLS Listing,,Single Family Residential,1805 Post Oak,Reston,VA,20191,845000,4,3.5,RESTON,2378,18704,1978,28,355,57,Active,November-5-2021 08:00 AM,November-5-2021 08:00 PM,http://www.redfin.com/VA/Reston/1805-Post-Oak-Trl-20191/home/9352642,BRIGHT MLS,VAFX2025644,N,Y,38.9419945,-77.3148077
MLS Listing,,Single Family Residential,1546 Hiddenbrook Dr,Herndon,VA,20170,570000,3,2.0,HIDDENBROOK,1360,9710,1975,28,419,30,Active,,,http://www.redfin.com/VA/Herndon/1546-Hiddenbrook-Dr-20170/home/9091378,BRIGHT MLS,VAFX2025476,N,Y,38.9916751,-77.3871021
MLS Listing,,Single Family Residential,4423 19th Pl NE,Washington,DC,20018,1199000,6,4.5,MICHIGAN PARK,3500,6335,1962,28,343,,Active,,,http://www.redfin.com/DC/Washington/4423-19th-Pl-NE-20018/home/10101078,BRIGHT MLS,DCDC2014726,N,Y,38.9439332,-76.977065
MLS Listing,,Townhouse,619 Lamont NW,Washington,DC,20010,1199000,4,3.5,COLUMBIA HEIGHTS,2350,1576,1910,28,510,,Active,,,http://www.redfin.com/DC/Washington/619-Lamont-St-NW-20010/home/10043422,BRIGHT MLS,DCDC2016990,N,Y,38.931513,-77.022062
MLS Listing,,Condo/Co-op,2300 Pimmit Dr #805,Falls Church,VA,22043,279990,2,2.0,IDYLWOOD TOWERS CONDO,1182,,1974,28,237,866,Active,,,http://www.redfin.com/VA/Falls-Church/2300-Pimmit-Dr-22043/unit-805/home/9479992,BRIGHT MLS,VAFX2026162,N,Y,38.8989474,-77.207147
MLS Listing,,Condo/Co-op,2020 12th St NW #108,Washington,DC,20009,599000,2,2.0,OLD CITY II,973,,2005,28,616,737,Active,,,http://www.redfin.com/DC/Washington/2020-12th-St-NW-20009/unit-108/home/10347204,BRIGHT MLS,DCDC2000359,N,Y,38.9178211,-77.0284248
MLS Listing,,Single Family Residential,3104 Greencastle,Burtonsville,MD,20866,540000,4,3.0,FAIRLAND,2704,24635,1955,29,200,,Active,,,http://www.redfin.com/MD/Burtonsville/3104-Greencastle-Rd-20866/home/10565187,BRIGHT MLS,MDMC2018820,N,Y,39.0997906,-76.9472695
MLS Listing,,Condo/Co-op,2907 Willston #301,Falls Church,VA,22044,249900,2,1.0,VILLAGES AT FALLS,718,,1952,29,348,393,Active,,,http://www.redfin.com/VA/Falls-Church/2907-Willston-Pl-22044/unit-301/home/176648768,BRIGHT MLS,VAFX2024842,N,Y,38.872559,-77.150609
MLS Listing,,Single Family Residential,12963 Pinecrest View Ct,Herndon,VA,20171,739900,4,3.0,FOX MILL ESTATES,2952,12711,1980,29,251,16,Active,,,http://www.redfin.com/VA/Herndon/12963-Pinecrest-View-Ct-20171/home/9315772,BRIGHT MLS,VAFX2000217,N,Y,38.9263263,-77.3950399
MLS Listing,,Townhouse,9419 Lost Trail Way,Potomac,MD,20854,860000,3,3.5,BEDFORDSHIRE,3822,3000,1987,30,225,97,Active,,,http://www.redfin.com/MD/Potomac/9419-Lost-Trail-Way-20854/home/10917328,BRIGHT MLS,MDMC2018666,N,Y,39.0396459,-77.1940095
MLS Listing,,Condo/Co-op,10328 Sager Ave #109,Fairfax,VA,22030,550000,2,2.0,PROVIDENCE SQUARE,1585,,2003,31,347,567,Active,,,http://www.redfin.com/VA/Fairfax/10328-Sager-Ave-22030/unit-109/home/12032752,BRIGHT MLS,VAFC2000442,N,Y,38.8451558,-77.3030947
MLS Listing,,Single Family Residential,1017 S Greenthorn Ave,Sterling,VA,20164,550000,3,3.0,STERLING PARK,1800,11761,1966,33,306,,Active,,,http://www.redfin.com/VA/Sterling/1017-S-Greenthorn-Ave-20164/home/11973250,BRIGHT MLS,VALO2009728,N,Y,39.0003406,-77.4201501
MLS Listing,,Townhouse,18657 Cross Country Ln,Gaithersburg,MD,20879,359000,3,3.0,MEADOWVALE,1500,2130,1983,34,239,73,Active,,,http://www.redfin.com/MD/Gaithersburg/18657-Cross-Country-Ln-20879/home/10815640,BRIGHT MLS,MDMC2017986,N,Y,39.1618453,-77.1824411
MLS Listing,,Condo/Co-op,4201 Cathedral Ave NW Unit 702E,Washington,DC,20016,375000,2,1.5,WESLEY HEIGHTS,1146,,1960,34,327,1115,Active,,,http://www.redfin.com/DC/Washington/4201-Cathedral-Ave-NW-20016/unit-702E/home/9951815,BRIGHT MLS,DCDC2011922,N,Y,38.9311869,-77.083832
MLS Listing,,Condo/Co-op,1300 Army Navy Dr #807,Arlington,VA,22202,295000,1,1.0,HORIZON HOUSE,900,,1965,34,328,769,Active,,,http://www.redfin.com/VA/Arlington/1300-Army-Navy-Dr-22202/unit-807/home/11275194,BRIGHT MLS,VAAR2005934,N,Y,38.8634503,-77.0671495
MLS Listing,,Single Family Residential,415 E Melbourne Ave,Silver Spring,MD,20901,549900,4,2.0,LONG BRANCH VILLAGE,1426,5810,1943,34,386,,Active,,,http://www.redfin.com/MD/Silver-Spring/415-E-Melbourne-Ave-20901/home/11027518,BRIGHT MLS,MDMC2018408,N,Y,39.0094022,-77.0002054
MLS Listing,,Condo/Co-op,50 Florida Ave NE #901,Washington,DC,20002,675000,2,2.0,ECKINGTON,934,,2019,34,723,455,Active,,,http://www.redfin.com/DC/Washington/50-Florida-Ave-NE-20002/unit-901/home/171550127,BRIGHT MLS,DCDC2015332,N,Y,38.9104754,-77.0072358
MLS Listing,,Condo/Co-op,5804 Village Green Dr Unit E,Alexandria,VA,22309,205000,2,1.0,VILLAGES CONDO THE,810,,1974,34,253,345,Active,,,http://www.redfin.com/VA/Alexandria/5804-Village-Green-Dr-22309/unit-E/home/105116646,BRIGHT MLS,VAFX2024882,N,Y,38.723239,-77.127787
MLS Listing,,Single Family Residential,13011 New Austin Ct,Herndon,VA,20171,729900,4,2.5,MONTEREY,3102,10940,1982,35,235,18,Active,,,http://www.redfin.com/VA/Herndon/13011-New-Austin-Ct-20171/home/9284029,BRIGHT MLS,VAFX2023470,N,Y,38.9331432,-77.39643
MLS Listing,,Condo/Co-op,88 V St SW #414,Washington,DC,20024,650000,1,1.5,OLD CITY I,750,,2020,35,867,615,Active,,,http://www.redfin.com/DC/Washington/88-V-St-SW-20024/unit-414/home/175897492,BRIGHT MLS,DCDC2016114,N,Y,38.8644435,-77.0119014
MLS Listing,,Condo/Co-op,910 M St NW #309,Washington,DC,20001,667000,2,2.0,OLD CITY II,975,,2006,35,684,819,Active,,,http://www.redfin.com/DC/Washington/910-M-St-NW-20001/unit-309/home/11746768,BRIGHT MLS,DCDC2014720,N,Y,38.9054055,-77.0246698
MLS Listing,,Single Family Residential,11205 Ashley Dr,Rockville,MD,20852,510000,3,2.0,RANDOLPH HILLS,1876,7455,1959,36,272,,Active,,,http://www.redfin.com/MD/Rockville/11205-Ashley-Dr-20852/home/10502889,BRIGHT MLS,MDMC2017390,N,Y,39.0409715,-77.0950497
MLS Listing,,Condo/Co-op,30 Florida Ave NW #4,Washington,DC,20001,595000,2,1.0,OLD CITY II,835,,2017,36,713,184,Active,,,http://www.redfin.com/DC/Washington/30-Florida-Ave-NW-20001/unit-4/home/144233718,BRIGHT MLS,DCDC2015498,N,Y,38.9105586,-77.0080342
MLS Listing,,Condo/Co-op,1380 Quincy St NW Unit 3A,Washington,DC,20011,599900,2,2.0,COLUMBIA HEIGHTS,902,,2015,36,665,533,Active,,,http://www.redfin.com/DC/Washington/1380-Quincy-St-NW-20010/unit-3A/home/105540106,BRIGHT MLS,DCDC2014734,N,Y,38.9374996,-77.0323438
MLS Listing,,Townhouse,11378 Links Dr,Reston,VA,20190,529900,3,2.5,RESTON BLK 39 SEC 3 OF R,1780,2003,1968,36,298,117,Active,,,http://www.redfin.com/VA/Reston/11378-Links-Dr-20190/home/9221870,BRIGHT MLS,VAFX2024108,N,Y,38.959106,-77.341774
MLS Listing,,Single Family Residential,4411 Chestnut Ln,Rockville,MD,20853,1102000,6,5.5,SYCAMORE ACRES,5045,43995,1956,36,218,,Active,,,http://www.redfin.com/MD/Rockville/4411-Chestnut-Ln-20853/home/10705500,BRIGHT MLS,MDMC2017918,N,Y,39.1143064,-77.0870693
MLS Listing,,Condo/Co-op,815 T St NW Unit A,Washington,DC,20001,825000,3,2.5,OLD CITY II,1577,,1900,36,523,198,Active,,,http://www.redfin.com/DC/Washington/815-T-St-NW-20001/unit-A/home/21645126,BRIGHT MLS,DCDC2016186,N,Y,38.9157505,-77.0236398
MLS Listing,,Condo/Co-op,2817 Jermantown Rd #611,Oakton,VA,22124,308000,2,2.0,TREEBROOKE,1347,,1974,36,229,654,Active,,,http://www.redfin.com/VA/Oakton/2817-Jermantown-Rd-22124/unit-611/home/9522033,BRIGHT MLS,VAFX2022842,N,Y,38.8742303,-77.2996388
MLS Listing,,Single Family Residential,4625 Barnum Ln,Alexandria,VA,22312,774900,4,2.0,COTTAGE FARMS,2328,22550,1956,37,333,,Active,,,http://www.redfin.com/VA/Alexandria/4625-Barnum-Ln-22312/home/9723595,BRIGHT MLS,VAFX2023018,N,Y,38.82222,-77.1383373
MLS Listing,,Single Family Residential,1000 Hertford St,Herndon,VA,20170,560000,4,2.0,HUNTERS CREEK,1092,7778,1978,37,513,6,Active,,,http://www.redfin.com/VA/Herndon/1000-Hertford-St-20170/home/9111772,BRIGHT MLS,VAFX2023558,N,Y,38.9775578,-77.3750375
MLS Listing,,Single Family Residential,7915 Kentbury Dr,Bethesda,MD,20814,1169000,6,4.0,COLUMBIA FOREST,2388,7234,1948,37,490,,Active,,,http://www.redfin.com/MD/Bethesda/7915-Kentbury-Dr-20814/home/10662990,BRIGHT MLS,MDMC2017576,N,Y,38.9891784,-77.0840793
MLS Listing,,Single Family Residential,14316 Rosemore Ln,Laurel,MD,20707,669900,5,3.5,THE VILLAGES AT WELLINGT,4484,9781,2004,37,149,70,Active,,,http://www.redfin.com/MD/Laurel/14316-Rosemore-Ln-20707/home/11136157,BRIGHT MLS,MDPG2012198,N,Y,39.0871325,-76.8750463
MLS Listing,,Condo/Co-op,2230 George C Marshall Dr #826,Falls Church,VA,22043,329000,2,1.0,RENAISSANCE 2230 CONDO,888,,1987,37,370,485,Active,,,http://www.redfin.com/VA/Falls-Church/2230-George-C-Marshall-Dr-22043/unit-826/home/9849512,BRIGHT MLS,VAFX2023580,N,Y,38.9006936,-77.2138394
MLS Listing,,Condo/Co-op,1724 Lake Shore Crest Dr #33,Reston,VA,20190,329500,2,1.5,EDGEWATER AT TOWN CENTER,966,,1994,38,341,498,Active,,,http://www.redfin.com/VA/Reston/1724-Lake-Shore-Crest-Dr-20190/unit-33/home/9215028,BRIGHT MLS,VAFX2024598,N,Y,38.9642709,-77.3619832
MLS Listing,,Townhouse,11509 Underoak Ct,Reston,VA,20191,469000,3,3.0,RESTON SEC 62 BLK 1C,1570,1690,1981,40,299,143,Active,,,http://www.redfin.com/VA/Reston/11509-Underoak-Ct-20191/home/9340633,BRIGHT MLS,VAFX2024474,N,Y,38.9308862,-77.3446685
MLS Listing,,Condo/Co-op,3003 Nicosh Cir #3306,Falls Church,VA,22042,315000,1,1.0,HIGH POINTE AT JEFFERSON,806,,2000,41,391,367,Active,,,http://www.redfin.com/VA/Falls-Church/3003-Nicosh-Cir-22042/unit-3306/home/9850203,BRIGHT MLS,VAFX2024088,N,Y,38.8689454,-77.2217694
MLS Listing,,Condo/Co-op,913 14th St SE #1,Washington,DC,20003,635000,3,3.0,OLD CITY I,1200,,1905,41,529,350,Active,,,http://www.redfin.com/DC/Washington/913-14th-St-SE-20003/unit-1/home/79640509,BRIGHT MLS,DCDC2014668,N,Y,38.8795872,-76.9857165
MLS Listing,,Townhouse,1234 Oates St NE,Washington,DC,20002,920000,4,3.5,TRINIDAD,1941,1298,1926,42,474,,Active,,,http://www.redfin.com/DC/Washington/1234-Oates-St-NE-20002/home/10095518,BRIGHT MLS,DCDC2014770,N,Y,38.9051605,-76.9870438
MLS Listing,,Townhouse,1316 Michigan Ave NE,Washington,DC,20017,649000,2,3.0,BROOKLAND,1352,1048,1940,42,480,,Active,,,http://www.redfin.com/DC/Washington/1316-Michigan-Ave-NE-20017/home/10092409,BRIGHT MLS,DCDC2015166,N,Y,38.9412026,-76.9877639
MLS Listing,,Condo/Co-op,5300 Holmes Run Pkwy #1008,Alexandria,VA,22304,249900,1,1.0,GREENHOUSE,815,,1975,42,307,490,Active,,,http://www.redfin.com/VA/Alexandria/5300-Holmes-Run-Pkwy-22304/unit-1008/home/11855739,BRIGHT MLS,VAAX2004084,N,Y,38.8152981,-77.1219453
MLS Listing,,Single Family Residential,7922 Bayberry Dr,Alexandria,VA,22306,700000,3,2.0,SHERWOOD HALL,2140,10523,1961,42,327,,Active,,,http://www.redfin.com/VA/Alexandria/7922-Bayberry-Dr-22306/home/9817044,BRIGHT MLS,VAFX2024106,N,Y,38.7418789,-77.072883
MLS Listing,,Single Family Residential,2902 Timber Wood Way,Herndon,VA,20171,759000,4,3.5,GLENBROOKE WOODS II,1781,16910,1979,42,426,27,Active,,,http://www.redfin.com/VA/Herndon/2902-Timber-Wood-Way-20171/home/9429032,BRIGHT MLS,VAFX2022706,N,Y,38.9155612,-77.3847252
MLS Listing,,Condo/Co-op,3601 5th St S #401,Arlington,VA,22204,189900,1,1.0,STRATTON HOUSE,683,,1958,43,278,525,Active,,,http://www.redfin.com/VA/Arlington/3601-5th-St-S-22204/unit-401/home/11260804,BRIGHT MLS,VAAR2003360,N,Y,38.8672126,-77.0967806
MLS Listing,,Townhouse,5951 Heritage Square Dr,Burke,VA,22015,499000,3,3.5,HERITAGE SQUARE NORTH,1556,2560,1978,43,321,75,Active,,,http://www.redfin.com/VA/Burke/5951-Heritage-Square-Dr-22015/home/9740082,BRIGHT MLS,VAFX2019886,N,Y,38.789876,-77.265129
MLS Listing,,Condo/Co-op,306 Todd Pl NE #1,Washington,DC,20002,420000,2,1.0,ECKINGTON,780,,1927,43,538,279,Active,,,http://www.redfin.com/DC/Washington/306-Todd-Pl-NE-20002/unit-1/home/21643879,BRIGHT MLS,DCDC2014426,N,Y,38.916479,-77.001613
MLS Listing,,Condo/Co-op,1731 Preston Rd #960,Alexandria,VA,22302,327000,1,1.0,PARKFAIRFAX,780,,1941,43,419,399,Active,,,http://www.redfin.com/VA/Alexandria/1731-Preston-Rd-22302/unit-960/home/177016175,BRIGHT MLS,VAAX2003972,N,Y,38.8365403,-77.0826716
MLS Listing,,Townhouse,222 Parker St NE,Washington,DC,20002,629000,1,1.0,OLD CITY I,782,691,1900,43,804,,Active,,,http://www.redfin.com/DC/Washington/222-Parker-St-NE-20002/home/9890881,BRIGHT MLS,DCDC2014956,N,Y,38.9019476,-77.0028376
MLS Listing,,Single Family Residential,7108 Dudrow Ct,Springfield,VA,22150,779000,4,3.5,DUDROW,3038,13001,1993,43,256,8,Active,,,http://www.redfin.com/VA/Springfield/7108-Dudrow-Ct-22150/home/9779041,BRIGHT MLS,VAFX2021538,N,Y,38.7627458,-77.2005216
MLS Listing,,Condo/Co-op,3125 Patrick Henry Dr #230,Falls Church,VA,22044,295000,2,2.0,CHATEAUX CONDO,1100,,1965,43,268,576,Active,,,http://www.redfin.com/VA/Falls-Church/3125-Patrick-Henry-Dr-22044/unit-230/home/9567689,BRIGHT MLS,VAFX2023798,N,Y,38.864814,-77.151271
MLS Listing,,Condo/Co-op,3101 New Mexico Ave NW #804,Washington,DC,20016,475000,1,1.0,WESLEY HEIGHTS,1170,,1979,44,406,959,Active,,,http://www.redfin.com/DC/Washington/3101-New-Mexico-Ave-NW-20016/unit-804/home/9954726,BRIGHT MLS,DCDC2014370,N,Y,38.932613,-77.082815
MLS Listing,,Condo/Co-op,2422 17th St NW #305,Washington,DC,20009,264500,0,1.0,MOUNT PLEASANT,316,,1910,45,837,186,Active,,,http://www.redfin.com/DC/Washington/2422-17th-St-NW-20009/unit-305/home/108578615,BRIGHT MLS,DCDC2013352,N,Y,38.922255,-77.0392789
MLS Listing,,Townhouse,9432 Packard Way Way,Burke,VA,22015,420000,3,1.5,BURKE MANOR,1200,1200,1977,46,350,80,Active,,,http://www.redfin.com/VA/Burke/9432-Packard-Way-22015/home/9735730,BRIGHT MLS,VAFX2019534,N,Y,38.7941108,-77.2695982
MLS Listing,,Condo/Co-op,7975 Audubon Ave Unit A1,Alexandria,VA,22306,182000,2,1.5,COLCHESTER TOWNE CONDO,872,,1973,48,209,490,Active,,,http://www.redfin.com/VA/Alexandria/7975-Audubon-Ave-22306/unit-A1/home/9813413,BRIGHT MLS,VAFX2023042,N,Y,38.7410736,-77.0931839
MLS Listing,,Townhouse,2246 Roanoke Dr,Alexandria,VA,22307,395000,2,1.0,BEACON MANOR,1040,3600,1951,48,380,,Active,,,http://www.redfin.com/VA/Alexandria/2246-Roanoke-Dr-22307/home/9791898,BRIGHT MLS,VAFX2022748,N,Y,38.769422,-77.0707261
MLS Listing,,Condo/Co-op,3815 14th St NW #2,Washington,DC,20011,369900,1,1.0,COLUMBIA HEIGHTS,733,,2016,49,505,153,Active,,,http://www.redfin.com/DC/Washington/3815-14th-St-NW-20011/unit-2/home/108277088,BRIGHT MLS,DCDC2013424,N,Y,38.9379164,-77.032417
MLS Listing,,Condo/Co-op,2519 I St NW #1,Washington,DC,20037,949900,2,2.0,FOGGY BOTTOM,900,,1985,49,1055,481,Active,,,http://www.redfin.com/DC/Washington/2519-I-St-NW-20037/unit-1/home/9042345,BRIGHT MLS,DCDC2013664,N,Y,38.9008311,-77.054195
MLS Listing,,Townhouse,123 E St SE,Washington,DC,20003,995000,3,1.5,CAPITOL HILL,1326,1308,1907,49,750,,Active,,,http://www.redfin.com/DC/Washington/123-E-St-SE-20003/home/9890623,BRIGHT MLS,DCDC2013644,N,Y,38.88305,-77.0048398
MLS Listing,,Single Family Residential,9 Gibson Ct,Gaithersburg,MD,20878,659999,4,3.5,WASHINGTONIAN VILLAGE,2240,13728,1984,49,295,,Active,,,http://www.redfin.com/MD/Gaithersburg/9-Gibson-Ct-20878/home/10830038,BRIGHT MLS,MDMC2016270,N,Y,39.1182219,-77.2108076
MLS Listing,,Condo/Co-op,1781 Chain Bridge Rd #101,Mclean,VA,22102,825000,2,2.0,MORGAN AT MCLEAN CONDO,1612,,2007,49,512,660,Active,November-7-2021 01:00 PM,November-7-2021 03:00 PM,http://www.redfin.com/VA/McLean/1781-Chain-Bridge-Rd-22102/unit-101/home/17111933,BRIGHT MLS,VAFX2021978,N,Y,38.9261259,-77.202426
MLS Listing,,Townhouse,1863 N Adams St,Arlington,VA,22201,899000,3,3.5,ARLINGTON CREST,1620,761,1989,49,555,95,Active,,,http://www.redfin.com/VA/Arlington/1863-N-Adams-St-22201/home/11247639,BRIGHT MLS,VAAR2005170,N,Y,38.8949254,-77.0886453
MLS Listing,,Condo/Co-op,1101 L St NW #504,Washington,DC,20005,260000,0,1.0,OLD CITY II,407,,1926,49,639,317,Active,,,http://www.redfin.com/DC/Washington/1101-L-St-NW-20005/unit-504/home/9876064,BRIGHT MLS,DCDC2012956,N,Y,38.9042972,-77.0272871
MLS Listing,,Condo/Co-op,4435 Fair Stone Dr #101,Fairfax,VA,22033,239000,1,1.0,STONECROFT CONDO,703,,1991,49,340,285,Active,,,http://www.redfin.com/VA/Fairfax/4435-Fair-Stone-Dr-22033/unit-101/home/9598672,BRIGHT MLS,VAFX2021456,N,Y,38.856689,-77.399956
MLS Listing,,Condo/Co-op,2328 Champlain St NW #311,Washington,DC,20009,725000,2,2.0,MOUNT PLEASANT,865,,2002,50,838,688,Active,,,http://www.redfin.com/DC/Washington/2328-Champlain-St-NW-20009/unit-311/home/10187706,BRIGHT MLS,DCDC2008858,N,Y,38.9206329,-77.0412894
MLS Listing,,Condo/Co-op,10811 Hampton Mill Ter #100,Rockville,MD,20852,412000,2,2.0,GABLES OF TUCKERMAN CODM,1037,,1987,50,397,445,Active,,,http://www.redfin.com/MD/North-Bethesda/10811-Hampton-Mill-Ter-20852/unit-100/home/22057698,BRIGHT MLS,MDMC2006460,N,Y,39.0324907,-77.1172697
MLS Listing,,Townhouse,680 Orchard Ridge Dr #100,Gaithersburg,MD,20878,399900,3,2.5,QUINCE ORCHARD PARK CODM,1744,,2002,50,229,407,Active,,,http://www.redfin.com/MD/Gaithersburg/680-Orchard-Ridge-Dr-20878/unit-100/home/11189033,BRIGHT MLS,MDMC2015570,N,Y,39.1249982,-77.226028
MLS Listing,,Townhouse,1536 6th St NW,Washington,DC,20001,1099000,3,3.0,OLD CITY II,2396,832,1900,51,459,,Active,November-5-2021 08:00 AM,November-5-2021 08:00 PM,http://www.redfin.com/DC/Washington/1536-6th-St-NW-20001/home/9879374,BRIGHT MLS,DCDC2010380,N,Y,38.9108193,-77.0201362
MLS Listing,,Townhouse,307 I St NE,Washington,DC,20002,995000,3,3.5,OLD CITY I,1856,1470,1909,51,536,,Active,,,http://www.redfin.com/DC/Washington/307-I-St-NE-20002/home/9892539,BRIGHT MLS,DCDC2011236,N,Y,38.90111,-77.0016357
MLS Listing,,Townhouse,124 Taussig Pl NE,Washington,DC,20011,589900,3,2.0,BROOKLAND,1594,2050,1951,51,370,,Active,,,http://www.redfin.com/DC/Washington/124-Taussig-Pl-NE-20011/home/10076893,BRIGHT MLS,DCDC2011716,N,Y,38.9416895,-77.0050422
MLS Listing,,Townhouse,2811 Shawn Leigh Dr,Vienna,VA,22181,619900,3,3.5,COUNTRY CREEK,2215,2625,1981,51,280,133,Active,,,http://www.redfin.com/VA/Vienna/2811-Shawn-Leigh-Dr-22181/home/9525894,BRIGHT MLS,VAFX2022154,N,Y,38.8792199,-77.276194
MLS Listing,,Single Family Residential,10003 Spring Lake Ter,Fairfax,VA,22030,700000,4,2.0,COUNTRY CLUB HILLS,3600,21465,1954,54,194,,Active,,,http://www.redfin.com/VA/Fairfax/10003-Spring-Lake-Ter-22030/home/12030061,BRIGHT MLS,VAFC2000492,N,Y,38.8601256,-77.2906847
MLS Listing,,Single Family Residential,1448 Kingsvale Cir,Herndon,VA,20170,775000,4,3.5,KINGSTREAM,3248,9840,1986,55,239,40,Active,,,http://www.redfin.com/VA/Herndon/1448-Kingsvale-Cir-20170/home/9117148,BRIGHT MLS,VAFX2021444,N,Y,38.9880498,-77.3719426
MLS Listing,,Condo/Co-op,3039 Macomb St NW #33,Washington,DC,20008,385000,1,1.0,CLEVELAND PARK,662,,1923,55,582,512,Active,,,http://www.redfin.com/DC/Washington/3039-Macomb-St-NW-20008/unit-33/home/17367409,BRIGHT MLS,DCDC2011572,N,Y,38.9338192,-77.0615282
MLS Listing,,Condo/Co-op,3003 Nicosh Cir #3106,Falls Church,VA,22042,229000,1,1.0,HIGH POINTE AT JEFFERSON,598,,2000,55,383,350,Active,,,http://www.redfin.com/VA/Falls-Church/3003-Nicosh-Cir-22042/unit-3106/home/9850192,BRIGHT MLS,VAFX2021540,N,Y,38.8689454,-77.2217694
MLS Listing,,Condo/Co-op,1111 25th St NW #304,Washington,DC,20037,530000,1,1.0,CENTRAL,835,,2005,55,635,546,Active,,,http://www.redfin.com/DC/Washington/1111-25th-St-NW-20037/unit-304/home/10346469,BRIGHT MLS,DCDC2012694,N,Y,38.9048286,-77.0523987
MLS Listing,,Condo/Co-op,1701 16th St NW #316,Washington,DC,20009,429000,1,1.0,OLD CITY II,758,,1920,56,566,659,Active,,,http://www.redfin.com/DC/Washington/1701-16th-St-NW-20009/unit-316/home/12301535,BRIGHT MLS,DCDC2012706,N,Y,38.912884,-77.0358918
MLS Listing,,Condo/Co-op,1311 Delaware Ave SW Unit S134,Washington,DC,20024,170000,1,1.0,SW WATERFRONT,700,,1962,56,243,1107,Active,,,http://www.redfin.com/DC/Washington/1311-Delaware-Ave-SW-20024/unit-S134/home/12126262,BRIGHT MLS,DCDC2012116,N,Y,38.8739553,-77.0155098
MLS Listing,,Condo/Co-op,1111 Orren St NE #102,Washington,DC,20002,369900,1,1.0,TRINIDAD,569,,2016,56,650,292,Active,,,http://www.redfin.com/DC/Washington/1111-Orren-St-NE-20002/unit-102/home/111500178,BRIGHT MLS,DCDC2012714,N,Y,38.9013361,-76.9861785
MLS Listing,,Condo/Co-op,3039 16th St NW Ph 2,Washington,DC,20009,849900,2,2.0,COLUMBIA HEIGHTS,1200,,2004,57,708,690,Active,,,http://www.redfin.com/DC/Washington/3039-16th-St-NW-20009/unit-2/home/10345182,BRIGHT MLS,DCDC2011680,N,Y,38.9278167,-77.0361144
MLS Listing,,Condo/Co-op,777 7th St NW #832,Washington,DC,20001,399900,1,1.0,CENTRAL,787,,2005,57,508,789,Active,,,http://www.redfin.com/DC/Washington/777-7th-St-NW-20001/unit-832/home/10193195,BRIGHT MLS,DCDC2011712,N,Y,38.8994495,-77.0215209
MLS Listing,,Condo/Co-op,530 N St SW Unit S408,Washington,DC,20024,349900,1,1.0,R.L.A. SW,762,,1966,57,459,1075,Active,,,http://www.redfin.com/DC/Washington/530-N-St-SW-20024/unit-S408/home/28679981,BRIGHT MLS,DCDC2011222,N,Y,38.8740144,-77.0184717
MLS Listing,,Condo/Co-op,1426 21st St NW #403,Washington,DC,20036,409900,1,1.0,CENTRAL,549,,1908,57,747,436,Active,,,http://www.redfin.com/DC/Washington/1426-21st-St-NW-20036/unit-403/home/9051377,BRIGHT MLS,DCDC2012702,N,Y,38.9093942,-77.0469047
MLS Listing,,Condo/Co-op,1361 K St SE #202,Washington,DC,20003,309000,1,1.0,OLD CITY I,500,,1946,58,618,335,Active,,,http://www.redfin.com/DC/Washington/1361-K-St-SE-20003/unit-202/home/9915620,BRIGHT MLS,DCDC2011886,N,Y,38.8782369,-76.9863137
MLS Listing,,Single Family Residential,401 S Fillmore St,Arlington,VA,22204,807900,4,2.5,PENROSE,1386,4200,1930,58,583,,Active,November-5-2021 08:00 AM,November-5-2021 08:00 PM,http://www.redfin.com/VA/Arlington/401-S-Fillmore-St-22204/home/11262477,BRIGHT MLS,VAAR2004848,N,Y,38.8696719,-77.0880809
MLS Listing,,Condo/Co-op,4595 Macarthur Blvd NW #6,Washington,DC,20007,549000,2,2.0,PALISADES,1050,,1954,58,523,498,Active,,,http://www.redfin.com/DC/Washington/4595-MacArthur-Blvd-NW-20007/unit-6/home/109256086,BRIGHT MLS,DCDC2012248,N,Y,38.9108146,-77.0888146
MLS Listing,,Townhouse,216 Aspen St,Alexandria,VA,22305,699000,3,2.5,WARWICK VILLAGE,1653,,1955,62,423,,Active,,,http://www.redfin.com/VA/Alexandria/216-Aspen-St-22305/home/11847703,BRIGHT MLS,VAAX2003114,N,Y,38.8344213,-77.0639204
MLS Listing,,Townhouse,2910 S Dinwiddie St,Arlington,VA,22206,550000,3,2.0,FAIRLINGTON VILLAGE,1383,,1948,63,398,406,Active,,,http://www.redfin.com/VA/Arlington/2910-S-Dinwiddie-St-22206/home/11861473,BRIGHT MLS,VAAX2003240,N,Y,38.8386934,-77.1040904
MLS Listing,,Condo/Co-op,1133 14th St NW #402,Washington,DC,20005,519000,1,1.0,CENTRAL,750,,2006,63,692,581,Active,,,http://www.redfin.com/DC/Washington/1133-14th-St-NW-20005/unit-402/home/22675238,BRIGHT MLS,DCDC2011446,N,Y,38.9047062,-77.0315774
MLS Listing,,Townhouse,1715 15th St NW #13,Washington,DC,20009,685000,2,1.5,OLD CITY II,1002,,1929,64,684,560,Active,,,http://www.redfin.com/DC/Washington/1715-15th-St-NW-20009/unit-13/home/9869794,BRIGHT MLS,DCDC2010662,N,Y,38.9132595,-77.03407
MLS Listing,,Single Family Residential,12961 Pinecrest View Ct,Herndon,VA,20171,710000,4,2.5,FOX MILL ESTATES,2878,10588,1980,64,247,14,Active,,,http://www.redfin.com/VA/Herndon/12961-Pinecrest-View-Ct-20171/home/9315765,BRIGHT MLS,VAFX2019634,N,Y,38.9264575,-77.3947708
MLS Listing,,Condo/Co-op,110 Gallatin St NW #11,Washington,DC,20011,325000,1,1.0,PETWORTH,601,,1936,65,541,192,Active,,,http://www.redfin.com/DC/Washington/110-Gallatin-St-NW-20011/unit-11/home/102276635,BRIGHT MLS,DCDC2008870,N,Y,38.9521364,-77.0120721
MLS Listing,,Condo/Co-op,2555 Pennsylvania Ave NW #417,Washington,DC,20037,558500,1,1.0,CENTRAL,845,,1978,65,661,799,Active,,,http://www.redfin.com/DC/Washington/2555-Pennsylvania-Ave-NW-20037/unit-417/home/9039885,BRIGHT MLS,DCDC2008848,N,Y,38.9046895,-77.0540178
MLS Listing,,Condo/Co-op,2425 L St NW #324,Washington,DC,20037,649999,1,1.0,CENTRAL,816,,2006,65,797,811,Active,,,http://www.redfin.com/DC/Washington/2425-L-St-NW-20037/unit-324/home/11745782,BRIGHT MLS,DCDC2009406,N,Y,38.9042897,-77.0523769
MLS Listing,,Single Family Residential,9839 Lawyers Rd,Vienna,VA,22181,910000,5,2.5,PINEY BRANCH HEIGHTS,3534,13509,1985,65,257,,Active,,,http://www.redfin.com/VA/Vienna/9839-Lawyers-Rd-22181/home/9443750,BRIGHT MLS,VAFX2015886,N,Y,38.9107972,-77.2868694
MLS Listing,,Townhouse,2042 Headlands Cir,Reston,VA,20191,539000,3,3.5,BOSTON RIDGE CLUSTER,1706,1468,1978,69,316,59,Active,,,http://www.redfin.com/VA/Reston/2042-Headlands-Cir-20191/home/9341670,BRIGHT MLS,VAFX2016080,N,Y,38.941,-77.336923
MLS Listing,,Single Family Residential,2800 Upshur St,Mount Rainier,MD,20712,410000,3,3.0,MT RAINIER- ROGERS 1ST A,1218,4240,1921,70,337,,Active,,,http://www.redfin.com/MD/Mt-Rainier/2800-Upshur-St-20712/home/10986618,BRIGHT MLS,MDPG2009414,N,Y,38.9433415,-76.9682891
MLS Listing,,Townhouse,444 Palmspring Dr,Gaithersburg,MD,20878,349000,3,2.5,PARK SUMMIT,1582,1200,1989,70,221,93,Active,November-5-2021 08:00 AM,November-5-2021 08:00 PM,http://www.redfin.com/MD/Gaithersburg/444-Palmspring-Dr-20878/home/10843431,BRIGHT MLS,MDMC2012704,N,Y,39.123373,-77.211447
MLS Listing,,Single Family Residential,5813 Shana Pl,Burke,VA,22015,664900,4,3.5,WAVERLY EAST,2016,4473,1983,71,330,75,Active,,,http://www.redfin.com/VA/Burke/5813-Shana-Pl-22015/home/9736745,BRIGHT MLS,VAFX2017684,N,Y,38.7937255,-77.2583632
MLS Listing,,Single Family Residential,1827 Fairland Rd,Silver Spring,MD,20904,495000,4,2.0,COLESVILLE OUTSIDE,1925,25538,1951,71,257,,Active,November-20-2021 01:00 PM,November-20-2021 03:00 PM,http://www.redfin.com/MD/Silver-Spring/1827-Fairland-Rd-20904/home/166452254,BRIGHT MLS,MDMC2009372,N,Y,39.0754782,-76.9727897
MLS Listing,,Condo/Co-op,1367-C Garden Wall Cir #710,Reston,VA,20194,336900,2,2.0,BALDWIN GROVE CONDO,1053,,1993,71,320,433,Active,,,http://www.redfin.com/VA/Reston/1367C-Garden-Wall-Cir-20194/unit-710/home/177013067,BRIGHT MLS,VAFX2016938,N,Y,38.982877,-77.338335
MLS Listing,,Condo/Co-op,2050 N Calvert St #104,Arlington,VA,22201,344990,2,1.0,SPOUT RUN TERRACE,793,,1987,71,435,360,Active,,,http://www.redfin.com/VA/Arlington/2050-N-Calvert-St-22201/unit-104/home/11279723,BRIGHT MLS,VAAR2004118,N,Y,38.8974134,-77.0932738
MLS Listing,,Townhouse,5 Grove Ridge Ct #67,Rockville,MD,20852,620000,3,2.5,GROSVENOR PK TOWNH CODM,1888,,1984,73,328,235,Active,,,http://www.redfin.com/MD/North-Bethesda/5-Grove-Ridge-Ct-20852/unit-67/home/10540326,BRIGHT MLS,MDMC2012046,N,Y,39.027102,-77.108171
MLS Listing,,Townhouse,3138 Barnard Ct,Fairfax,VA,22031,639900,3,3.0,STONEHURST,1943,1840,1972,77,329,115,Active,,,http://www.redfin.com/VA/Fairfax/3138-Barnard-Ct-22031/home/9536030,BRIGHT MLS,VAFX2016090,N,Y,38.8679877,-77.2664332
MLS Listing,,Single Family Residential,7837 Westmont Ln,Mclean,VA,22102,3031500,7,8.5,GARFIELD PARK,10477,55696,2006,82,289,455,Active,,,http://www.redfin.com/VA/McLean/7837-Westmont-Ln-22102/home/12072117,BRIGHT MLS,VAFX2015548,N,Y,38.954317,-77.218206
MLS Listing,,Townhouse,2252 Canteen Cir,Odenton,MD,21113,345000,3,3.0,SEVEN OAKS,1838,1760,1992,84,188,72,Active,,,http://www.redfin.com/MD/Odenton/2252-Canteen-Cir-21113/home/10374856,BRIGHT MLS,MDAA2006636,N,Y,39.1080588,-76.7226268
MLS Listing,,Townhouse,4225 32nd Rd S,Arlington,VA,22206,599900,2,2.0,FAIRLINGTON GREEN,1500,,1940,84,400,467,Active,November-5-2021 08:00 AM,November-5-2021 08:00 PM,http://www.redfin.com/VA/Arlington/4225-32nd-Rd-S-22206/home/11269666,BRIGHT MLS,VAAR2003318,N,Y,38.8364126,-77.086541
MLS Listing,,Condo/Co-op,240 M St SW Unit E310,Washington,DC,20024,280000,1,1.0,R.L.A. SW,532,,1967,86,526,573,Active,,,http://www.redfin.com/DC/Washington/240-M-St-SW-20024/unit-E310/home/9886334,BRIGHT MLS,DCDC2008356,N,Y,38.8754269,-77.0154688
MLS Listing,,Condo/Co-op,1101 S Arlington Ridge Rd #406,Arlington,VA,22202,615000,2,2.5,THE REPRESENTATIVE,1606,,1976,90,383,876,Active,,,http://www.redfin.com/VA/Arlington/1101-S-Arlington-Ridge-Rd-22202/unit-406/home/11274751,BRIGHT MLS,VAAR2003222,N,Y,38.8637389,-77.0656643
MLS Listing,,Condo/Co-op,1623 Carriage House Ter Unit A,Silver Spring,MD,20904,150500,1,1.0,TIERS AT SIL SPRG CODM,732,,1986,92,206,380,Active,,,http://www.redfin.com/MD/Silver-Spring/1623-Carriage-House-Ter-20904/unit-A/home/167139797,BRIGHT MLS,MDMC2008582,N,Y,39.0489112,-76.9792768
MLS Listing,,Condo/Co-op,11800 Sunset Hills Rd #704,Reston,VA,20190,350000,1,1.0,CARLTON HOUSE CONDO,833,,2005,93,420,406,Active,,,http://www.redfin.com/VA/Reston/11800-Sunset-Hills-Rd-20190/unit-704/home/9849283,BRIGHT MLS,VAFX2011836,N,Y,38.9556529,-77.3543812
MLS Listing,,Condo/Co-op,1 W Maple St #102,Alexandria,VA,22301,310000,1,1.0,ROSEMONT,540,,1938,93,574,307,Active,,,http://www.redfin.com/VA/Alexandria/1-W-Maple-St-22301/unit-102/home/143365448,BRIGHT MLS,VAAX2002228,N,Y,38.8115044,-77.0617065
MLS Listing,,Single Family Residential,6308 Wayles St,Springfield,VA,22150,630000,3,2.0,MONTICELLO WOODS,2200,12255,1963,94,286,,Active,,,http://www.redfin.com/VA/Springfield/6308-Wayles-St-22150/home/9752168,BRIGHT MLS,VAFX2007262,N,Y,38.7810233,-77.165165
MLS Listing,,Townhouse,319 I St NE,Washington,DC,20002,1049900,3,5.0,OLD CITY I,3000,1245,1910,97,350,,Active,,,http://www.redfin.com/DC/Washington/319-I-St-NE-20002/home/9892524,BRIGHT MLS,DCDC2006012,N,Y,38.9011028,-77.0012178
MLS Listing,,Condo/Co-op,8220 Crestwood Hts #1219,Mclean,VA,22102,555000,1,1.5,ONE PARK CREST CONDO,1061,,2008,99,523,679,Active,,,http://www.redfin.com/VA/McLean/8220-Crestwood-Heights-Dr-22102/unit-1219/home/21705430,BRIGHT MLS,VAFX2009944,N,Y,38.9297833,-77.2285702
MLS Listing,,Condo/Co-op,1900 Lyttonsville Rd #211,Silver Spring,MD,20910,199900,1,1.0,PARK SUTTON,869,,1964,99,230,626,Active,,,http://www.redfin.com/MD/Silver-Spring/1900-Lyttonsville-Rd-20910/unit-211/home/11107175,BRIGHT MLS,MDMC2006632,N,Y,39.0012929,-77.0411995
MLS Listing,,Condo/Co-op,4101 Cathedral Ave NW #617,Washington,DC,20016,499000,2,2.0,OBSERVATORY CIRCLE,1561,,1962,100,320,1626,Active,,,http://www.redfin.com/DC/Washington/4101-Cathedral-Ave-NW-20016/unit-617/home/174610873,BRIGHT MLS,DCDC2005286,N,Y,38.9305425,-77.0795154
MLS Listing,,Condo/Co-op,8220 Crestwood Hts #1013,Mclean,VA,22102,419000,1,1.0,ONE PARK CREST CONDO,787,,2008,100,532,603,Active,,,http://www.redfin.com/VA/McLean/8220-Crestwood-Heights-Dr-22102/unit-1013/home/21705634,BRIGHT MLS,VAFX2009708,N,Y,38.9297833,-77.2285702
MLS Listing,,Condo/Co-op,601 Pennsylvania Ave NW Unit 1101N,Washington,DC,20004,389000,0,1.0,CENTRAL,557,,1991,100,698,483,Active,,,http://www.redfin.com/DC/Washington/601-Pennsylvania-Ave-NW-20004/unit-1101N/home/9879862,BRIGHT MLS,DCDC2006488,N,Y,38.893853,-77.0203836
MLS Listing,,Condo/Co-op,2227 20th St NW #207,Washington,DC,20009,439000,1,1.0,KALORAMA,749,,1923,105,586,568,Active,,,http://www.redfin.com/DC/Washington/2227-20th-St-NW-20009/unit-207/home/10000197,BRIGHT MLS,DCDC2004004,N,Y,38.9190625,-77.0458772
MLS Listing,,Single Family Residential,8912 Dogue Dr,Alexandria,VA,22309,799900,5,3.5,KEYS AND RUSSELL,3640,21783,1955,106,220,,Active,,,http://www.redfin.com/VA/Alexandria/8912-Dogue-Dr-22309/home/9825261,BRIGHT MLS,VAFX2009658,N,Y,38.7159866,-77.1253032
MLS Listing,,Single Family Residential,2018 N Cameron St,Arlington,VA,22207,1229500,4,3.5,HIGHVIEW PARK,3076,6926,2007,113,400,,Active,,,http://www.redfin.com/VA/Arlington/2018-N-Cameron-St-22207/home/11236229,BRIGHT MLS,VAAR2001440,N,Y,38.8946483,-77.1272359
MLS Listing,,Condo/Co-op,906 S Washington St #213,Alexandria,VA,22314,199900,0,1.0,BEARINGS SOUTH,469,,1941,142,426,345,Active,,,http://www.redfin.com/VA/Alexandria/906-S-Washington-St-22314/unit-213/home/11878824,BRIGHT MLS,VAAX260728,N,Y,38.7955846,-77.0484858
MLS Listing,,Condo/Co-op,10809 Hampton Mill Ter Unit 505 DOOR 130,Rockville,MD,20852,390000,2,2.0,GABLES OF TUCKERMAN CODM,1037,,1987,157,376,369,Active,,,http://www.redfin.com/MD/Rockville/10809-Hampton-Mill-Ter-20852/unit-505-DOOR-130/home/175247352,BRIGHT MLS,MDMC758528,N,Y,39.0323506,-77.1165803
MLS Listing,,Condo/Co-op,700 New Hampshire Ave NW #817,Washington,DC,20037,699999,2,2.0,FOGGY BOTTOM,1430,,1971,158,490,2501,Active,,,http://www.redfin.com/DC/Washington/700-New-Hampshire-Ave-NW-20037/unit-817/home/40476038,BRIGHT MLS,DCDC523230,N,Y,38.898388,-77.055383
MLS Listing,,Condo/Co-op,4515 Willard Ave Unit 1514S,Chevy Chase,MD,20815,319000,1,1.0,WILLOUGHBY OF CH CH CODM,883,,1968,191,361,650,Active,,,http://www.redfin.com/MD/Chevy-Chase/4515-Willard-Ave-20815/unit-1514S/home/143402718,BRIGHT MLS,MDMC755126,N,Y,38.9624844,-77.0898117
MLS Listing,,Single Family Residential,12523 Braddock Rd,Fairfax,VA,22030,2999980,7,6.0,GRACE J KELLEY,13778,209132,2021,259,218,,Active,,,http://www.redfin.com/VA/Fairfax/12523-Braddock-Rd-22030/home/82089516,BRIGHT MLS,VAFX1181890,N,Y,38.825988,-77.3811039
Redfin Data,,Single Family Residential,7500 Blaise Trl,McLean,VA,22102,1300000,4,3.5,McLean,2549,87120,1973,1,510,,Pre On-Market,,,http://www.redfin.com/VA/McLean/7500-Blaise-Trl-22102/home/9273869,Coming Soon,78366,N,Y,38.9476409,-77.2042213
Redfin Data,,Condo/Co-op,3910 Doc Berlin Dr #14,Silver Spring,MD,20906,329900,2,2.0,Silver Spring,1040,,2016,1,317,246,Pre On-Market,,,http://www.redfin.com/MD/Silver-Spring/3910-Doc-Berlin-Dr-20906/unit-14/home/104458775,Coming Soon,78422,N,Y,39.1133417,-77.07349
Redfin Data,,Single Family Residential,7518 Browns Bridge Rd,Highland,MD,20777,749900,4,3.0,Highland,4297,43560,1958,1,175,,Pre On-Market,,,http://www.redfin.com/MD/Highland/7518-Browns-Bridge-Rd-20777/home/10122640,Coming Soon,78416,N,Y,39.1627203,-76.9457165
Redfin Data,,Condo/Co-op,11713 Karbon Hill Ct Unit 711A,Reston,VA,20191,399500,2,2.0,Reston,1582,,1987,1,253,410,Pre On-Market,,,http://www.redfin.com/VA/Reston/11713-Karbon-Hill-Ct-20191/unit-711A/home/9345359,Coming Soon,78412,N,Y,38.934358,-77.351977
Redfin Data,,Condo/Co-op,11800 Old Georgetown Rd #1325,Rockville,MD,20852,425000,2,2.0,Rockville,1222,,2006,1,348,635,Pre On-Market,,,http://www.redfin.com/MD/Rockville/11800-Old-Georgetown-Rd-20852/unit-1325/home/11759852,Coming Soon,78395,N,Y,39.0502507,-77.1108517
Redfin Data,,Condo/Co-op,676 S Columbus St,Alexandria,VA,22314,1049000,3,3.5,Alexandria,2031,,1978,1,516,610,Pre On-Market,,,http://www.redfin.com/VA/Alexandria/676-S-Columbus-St-22314/home/11863282,Coming Soon,78368,N,Y,38.7987495,-77.049368
Redfin Data,,Condo/Co-op,7950 Silverada Pl Unit 127C,Alexandria,VA,22309,222000,2,1.5,Alexandria,1100,,1978,1,202,461,Pre On-Market,,,http://www.redfin.com/VA/Alexandria/7950-Silverada-Pl-22309/unit-127C/home/9813351,Coming Soon,78367,N,Y,38.746044,-77.095978
Redfin Data,,Single Family Residential,3239 Valley Ln,Falls Church,VA,22044,1499000,4,4.0,Falls Church,3823,57063,2000,2,392,,Pre On-Market,,,http://www.redfin.com/VA/Falls-Church/3239-Valley-Ln-22044/home/9643518,Coming Soon,78337,N,Y,38.8606537,-77.1630532
Redfin Data,,Single Family Residential,1483 Dunster Ln,Potomac,MD,20854,830000,4,2.5,Potomac,2424,9235,1963,2,342,,Pre On-Market,,,http://www.redfin.com/MD/Rockville/1483-Dunster-Ln-20854/home/10512744,Coming Soon,78313,N,Y,39.0617999,-77.1692538
Redfin Data,,Condo/Co-op,9306 Palmer Pl #6,Laurel,MD,20708,270000,2,2.0,Laurel,1208,,1986,2,224,300,Pre On-Market,,,http://www.redfin.com/MD/Laurel/9306-Palmer-Pl-20708/unit-6/home/10724094,Coming Soon,78330,N,Y,39.0892908,-76.8434842
Redfin Data,,Townhouse,4714 31st St S,Arlington,VA,22206,729000,3,3.5,Arlington,1440,1352,1992,2,506,133,Pre On-Market,,,http://www.redfin.com/VA/Arlington/4714-31st-St-S-22206/home/11269320,Coming Soon,78329,N,Y,38.8367677,-77.095904
Redfin Data,,Single Family Residential,755 Barbaralynn Pl,Herndon,VA,20170,574900,5,2.5,Herndon,2000,9750,1973,2,287,,Pre On-Market,,,http://www.redfin.com/VA/Herndon/755-Barbaralynn-Pl-20170/home/9178923,Coming Soon,78325,N,Y,38.9708173,-77.3999727
Redfin Data,,Townhouse,6647 Debra Lu Way,Springfield,VA,22150,610000,3,3.0,Springfield,1920,1400,1997,3,318,119,Pre On-Market,,,http://www.redfin.com/VA/Springfield/6647-Debra-Lu-Way-22150/home/9782217,Coming Soon,78311,N,Y,38.774189,-77.159368
Redfin Data,,Single Family Residential,6623 Jessamine Ln,Annandale,VA,22003,999999,4,4.5,Annandale,3510,4856,2015,3,285,187,Pre On-Market,,,http://www.redfin.com/VA/Annandale/6623-Jessamine-Ln-22003/home/109690739,Coming Soon,78266,N,Y,38.823778,-77.1716826
Redfin Data,,Single Family Residential,11140 Rich Meadow Dr,Great Falls,VA,22066,1100000,4,3.5,Great Falls,4560,76316,1986,3,241,,Pre On-Market,,,http://www.redfin.com/VA/Great-Falls/11140-Rich-Meadow-Dr-22066/home/9075252,Coming Soon,78287,N,Y,39.0183151,-77.3371312
Redfin Data,,Single Family Residential,20454 Willowmere Ct,Sterling,VA,20165,839900,4,3.5,Sterling,4245,10890,1993,3,198,85,Pre On-Market,,,http://www.redfin.com/VA/Sterling/20454-Willowmere-Ct-20165/home/11939490,Coming Soon,78278,N,Y,39.0491671,-77.3688029
Redfin Data,,Townhouse,5507 Starboard Ct,Fairfax,VA,22032,550000,3,3.0,Fairfax,1430,1742,1976,8,385,87,Pre On-Market,,,http://www.redfin.com/VA/Fairfax/5507-Starboard-Ct-22032/home/9728268,Coming Soon,78154,N,Y,38.801616,-77.291445
Redfin Data,,Condo/Co-op,4956 Sentinel Dr Unit 9-401,Bethesda,MD,20816,489000,2,2.0,Bethesda,1367,,1975,9,358,920,Pre On-Market,,,http://www.redfin.com/MD/Bethesda/4956-Sentinel-Dr-20816/unit-9-401/home/10686010,Coming Soon,78130,N,Y,38.948531,-77.1161193
Redfin Data,,Condo/Co-op,1020 N Highland St #409,Arlington,VA,22201,479900,1,1.0,Arlington,770,,2007,23,623,,Pre On-Market,,,http://www.redfin.com/VA/Arlington/1020-N-Highland-St-22201/unit-409/home/16897836,Coming Soon,77650,N,Y,38.8849496,-77.095252
MLS Listing,,Condo/Co-op,1330 New Hampshire Ave NW #213,Washington,DC,20036,425000,1,1.0,CENTRAL,785,,1963,1,541,625,Active,,,http://www.redfin.com/DC/Washington/1330-New-Hampshire-Ave-NW-20036/unit-213/home/9056721,BRIGHT MLS,DCDC2011466,N,Y,38.9083086,-77.0451575
MLS Listing,,Single Family Residential,707 Kersey Rd,Silver Spring,MD,20902,879000,5,3.5,GRAYS ESTATES,2825,13986,1986,1,311,,Active,,,http://www.redfin.com/MD/Silver-Spring/707-Kersey-Rd-20902/home/11130065,BRIGHT MLS,MDMC2021948,N,Y,39.0468631,-77.0231391
MLS Listing,,Townhouse,13712 Penwith Ct,Chantilly,VA,20151,439900,4,3.0,BROOKSIDE SEC 2,1704,2245,1969,1,258,101,Active,,,http://www.redfin.com/VA/Chantilly/13712-Penwith-Ct-20151/home/9487138,BRIGHT MLS,VAFX2027154,N,Y,38.8842092,-77.4197578
MLS Listing,,Townhouse,3224 Sherman Ave NW,Washington,DC,20010,550000,4,1.5,COLUMBIA HEIGHTS,1575,2000,1907,1,349,,Active,,,http://www.redfin.com/DC/Washington/3224-Sherman-Ave-NW-20010/home/10028848,BRIGHT MLS,DCDC2019270,N,Y,38.9304051,-77.0268288
MLS Listing,,Townhouse,624 1/2 8th St NE #201,Washington,DC,20002,1099999,3,3.5,OLD CITY I,2496,,2014,1,441,258,Active,,,http://www.redfin.com/DC/Washington/624-1-2-8th-St-NE-20002/unit-201/home/113744949,BRIGHT MLS,DCDC2020078,N,Y,38.898084719,-76.9954551
MLS Listing,,Condo/Co-op,1444 Taylor St NW #3,Washington,DC,20011,699990,2,2.5,COLUMBIA HEIGHTS,1050,,1949,1,667,200,Active,November-7-2021 12:00 PM,November-7-2021 02:00 PM,http://www.redfin.com/DC/Washington/1444-Taylor-St-NW-20011/unit-3/home/146202825,BRIGHT MLS,DCDC2019744,N,Y,38.9404961,-77.0344044
MLS Listing,,Townhouse,3909 Kansas Ave NW,Washington,DC,20011,874900,4,4.5,COLUMBIA HEIGHTS,2700,3484,1923,1,324,,Active,,,http://www.redfin.com/DC/Washington/3909-Kansas-Ave-NW-20011/home/10191065,BRIGHT MLS,DCDC2019884,N,Y,38.939017,-77.027534
MLS Listing,,Single Family Residential,7727 Laytonia Dr,Derwood,MD,20855,549000,4,2.5,MILL CREEK TOWNE,2474,21212,1968,1,222,,Active,November-6-2021 01:00 PM,November-6-2021 03:00 PM,http://www.redfin.com/MD/Derwood/7727-Laytonia-Dr-20855/home/10737479,BRIGHT MLS,MDMC2021470,N,Y,39.1527389,-77.1586945
MLS Listing,,Condo/Co-op,10401 Grosvenor Pl #1326,Rockville,MD,20852,182900,1,1.0,GROSVENOR PARK III,560,,1966,1,327,547,Active,,,http://www.redfin.com/MD/Rockville/10401-Grosvenor-Pl-20852/unit-1326/home/10530351,BRIGHT MLS,MDMC2017960,N,Y,39.0271776,-77.1065362
MLS Listing,,Condo/Co-op,2800 Wisconsin Ave NW #202,Washington,DC,20007,205000,0,1.0,OBSERVATORY CIRCLE,392,,1964,1,523,426,Active,November-7-2021 01:00 PM,November-7-2021 03:00 PM,http://www.redfin.com/DC/Washington/2800-Wisconsin-Ave-NW-20007/unit-202/home/9974100,BRIGHT MLS,DCDC2020112,N,Y,38.9264982,-77.0734697
MLS Listing,,Single Family Residential,12673 Still Pond Ln,Oak Hill,VA,20171,825000,4,3.0,FRANKLIN FARM,3160,11521,1983,1,261,96,Active,November-7-2021 01:00 PM,November-7-2021 04:00 PM,http://www.redfin.com/VA/Herndon/12673-Still-Pond-Ln-20171/home/9429282,BRIGHT MLS,VAFX2027778,N,Y,38.9092254,-77.3888512
MLS Listing,,Townhouse,4557 Fair Valley Dr,Fairfax,VA,22033,649900,3,3.5,FAIR LAKES,1752,1880,1999,1,371,75,Active,November-6-2021 12:00 PM,November-6-2021 03:00 PM,http://www.redfin.com/VA/Fairfax/4557-Fair-Valley-Dr-22033/home/9508583,BRIGHT MLS,VAFX2028272,N,Y,38.863045,-77.3916316
MLS Listing,,Condo/Co-op,3024 Porter St NW #302,Washington,DC,20008,399000,2,1.0,CLEVELAND PARK,,,1922,1,,531,Active,November-7-2021 01:00 PM,November-7-2021 03:00 PM,http://www.redfin.com/DC/Washington/3024-Porter-St-NW-20008/unit-302/home/21676784,BRIGHT MLS,DCDC2019354,N,Y,38.9370793,-77.0626975
MLS Listing,,Condo/Co-op,1111 University Blvd W Unit 915-A,Silver Spring,MD,20902,170000,2,2.0,UNIVERSITY TOWERS CODM,1107,,1967,1,154,805,Active,,,http://www.redfin.com/MD/Silver-Spring/1111-University-Blvd-W-20902/unit-915-A/home/11117223,BRIGHT MLS,MDMC2022206,N,Y,39.0371712,-77.0272102
MLS Listing,,Single Family Residential,10205 Forest Lake Dr,Great Falls,VA,22066,1299999,4,3.5,FOREST LAKE ESTATES,4825,43875,1985,1,269,8,Active,November-7-2021 01:00 PM,November-7-2021 03:00 PM,http://www.redfin.com/VA/Great-Falls/10205-Forest-Lake-Dr-22066/home/9083212,BRIGHT MLS,VAFX2029580,N,Y,39.0194148,-77.2959585
MLS Listing,,Condo/Co-op,1321 N Adams Ct #304,Arlington,VA,22201,449900,1,1.0,COURTHOUSE HILL,715,,1996,1,629,389,Active,,,http://www.redfin.com/VA/Arlington/1321-N-Adams-Ct-22201/unit-304/home/11254545,BRIGHT MLS,VAAR2007034,N,Y,38.8888101,-77.0871456
MLS Listing,,Townhouse,6052 Haverhill Ct,Springfield,VA,22152,545000,3,3.0,CHARLESTOWN,1794,1349,1968,1,304,230,Active,,,http://www.redfin.com/VA/West-Springfield/6052-Haverhill-Ct-22152/home/9745693,BRIGHT MLS,VAFX2028836,N,Y,38.7883253,-77.2254104
MLS Listing,,Condo/Co-op,2500 Q St NW #332,Washington,DC,20007,400000,1,1.0,GEORGETOWN,1014,,1942,1,394,1008,Active,,,http://www.redfin.com/DC/Washington/2500-Q-St-NW-20007/unit-332/home/9928989,BRIGHT MLS,DCDC2019580,N,Y,38.9103711,-77.0520839
MLS Listing,,Single Family Residential,9901 Swan Dr,Laurel,MD,20723,540000,4,3.5,KINGS ARMS,2916,6763,2003,1,185,50,Active,,,http://www.redfin.com/MD/Laurel/9901-Swan-Dr-20723/home/10213077,BRIGHT MLS,MDHW2006676,N,Y,39.1229917,-76.8396396
MLS Listing,,Single Family Residential,2000 N Amelia St,Sterling,VA,20164,478000,3,2.0,STERLING PARK,1481,10019,1968,1,323,,Active,November-6-2021 01:00 PM,November-6-2021 04:00 PM,http://www.redfin.com/VA/Sterling/2000-N-Amelia-St-20164/home/11955535,BRIGHT MLS,VALO2011370,N,Y,39.0220592,-77.3880899
MLS Listing,,Townhouse,8402 Meadow Green Way,Gaithersburg,MD,20877,404800,3,3.5,FLOWER HILL,2230,1650,1989,1,182,63,Active,November-6-2021 01:00 PM,November-6-2021 03:00 PM,http://www.redfin.com/MD/Gaithersburg/8402-Meadow-Green-Way-20877/home/10852247,BRIGHT MLS,MDMC2020828,N,Y,39.1537562,-77.1713094
MLS Listing,,Condo/Co-op,2765 Centerboro Dr #349,Vienna,VA,22181,399000,2,2.0,MARQUIS AT VIENNA STATIO,1185,,2003,1,337,435,Active,,,http://www.redfin.com/VA/Vienna/2765-Centerboro-Dr-22181/unit-349/home/9851905,BRIGHT MLS,VAFX2029576,N,Y,38.8809669,-77.270397
MLS Listing,,Townhouse,9012 Giltinan Ct,Springfield,VA,22153,509000,3,3.0,GLENWOOD MANOR SEC,1766,1560,1981,1,288,89,Active,November-6-2021 12:00 PM,November-6-2021 03:00 PM,http://www.redfin.com/VA/Springfield/9012-Giltinan-Ct-22153/home/9770745,BRIGHT MLS,VAFX2028212,N,Y,38.756288,-77.256557
MLS Listing,,Townhouse,4152 Timber Log Way,Fairfax,VA,22030,519900,2,2.5,RIDGE TOP ROAD,1530,1134,2002,1,340,126,Active,November-7-2021 02:00 PM,November-7-2021 04:00 PM,http://www.redfin.com/VA/Fairfax/4152-Timber-Log-Way-22030/home/9840907,BRIGHT MLS,VAFX2029170,N,Y,38.8547166,-77.3435582
MLS Listing,,Townhouse,12507 North Lake Ct,Fairfax,VA,22033,589500,2,3.5,FAIR LAKES SEC 1A,2114,2109,1988,1,279,142,Active,,,http://www.redfin.com/VA/Fairfax/12507-N-Lake-Ct-22033/home/9507136,BRIGHT MLS,VAFX2029538,N,Y,38.8707772,-77.3807601
MLS Listing,,Single Family Residential,12203 Barclay Pl,Laurel,MD,20708,405000,4,2.5,MONTPELIER,1980,19462,1967,1,205,27,Active,,,http://www.redfin.com/MD/Laurel/12203-Barclay-Pl-20708/home/10714792,BRIGHT MLS,MDPG2016840,N,Y,39.0574606,-76.852389
MLS Listing,,Single Family Residential,5310 Taylor Rd,Riverdale,MD,20737,333000,3,1.0,RIVERDALE PARK,1222,10948,1942,1,273,,Active,,,http://www.redfin.com/MD/Riverdale/5310-Taylor-Rd-20737/home/11039921,BRIGHT MLS,MDPG2016496,N,Y,38.9527351,-76.9336751
MLS Listing,,Townhouse,1210 S Barton St #328,Arlington,VA,22204,327999,1,1.0,ARLINGTON VILLAGE,800,,1939,1,410,395,Active,November-5-2021 05:00 PM,November-5-2021 07:00 PM,http://www.redfin.com/VA/Arlington/1210-S-Barton-St-22204/unit-328/home/11272902,BRIGHT MLS,VAAR2006626,N,Y,38.8609859,-77.0834886
MLS Listing,,Townhouse,2151 Pond View Ct,Reston,VA,20191,560000,4,3.5,RESTON SEC 52 BLK 1B LIN,2138,1647,1977,1,262,100,Active,November-7-2021 01:00 PM,November-7-2021 03:00 PM,http://www.redfin.com/VA/Reston/2151-Pond-View-Ct-20191/home/9336929,BRIGHT MLS,VAFX2026948,N,Y,38.938348,-77.351381
MLS Listing,,Townhouse,1214 Fairmont St NW #3,Washington,DC,20009,1100000,3,3.0,COLUMBIA HEIGHTS,1650,,2021,1,667,206,Active,November-7-2021 01:00 PM,November-7-2021 03:00 PM,http://www.redfin.com/DC/Washington/1214-Fairmont-St-NW-20009/unit-3/home/176006974,BRIGHT MLS,DCDC2020030,N,Y,38.9244855,-77.0284111
MLS Listing,,Single Family Residential,5959 Fairview Woods Dr,Fairfax Station,VA,22039,985000,4,3.5,FAIRVIEW WOODS,4075,48265,1995,1,242,59,Active,,,http://www.redfin.com/VA/Fairfax-Station/5959-Fairview-Woods-Dr-22039/home/9726235,BRIGHT MLS,VAFX2028640,N,Y,38.7976063,-77.3360095
MLS Listing,,Condo/Co-op,1077 30th St NW #707,Washington,DC,20007,770000,2,2.0,GEORGETOWN,1084,,1980,1,710,914,Active,November-7-2021 01:00 PM,November-7-2021 04:00 PM,http://www.redfin.com/DC/Washington/1077-30th-St-NW-20007/unit-707/home/9924358,BRIGHT MLS,DCDC2018032,N,Y,38.9035525,-77.0589547
MLS Listing,,Townhouse,7804 Butterfield Ln,Annandale,VA,22003,549900,3,3.5,LAFAYETTE VILLAGE,1778,1700,1983,1,309,113,Active,November-7-2021 12:00 PM,November-7-2021 03:00 PM,http://www.redfin.com/VA/Annandale/7804-Butterfield-Ln-22003/home/9630868,BRIGHT MLS,VAFX2029388,N,Y,38.8398899,-77.215131
MLS Listing,,Single Family Residential,Lot 15 Rose Ave,Glen Burnie,MD,21061,409990,3,2.5,GLEN BURNIE HEIGHTS,1643,4800,,1,250,,Active,,,http://www.redfin.com/MD/Glen-Burnie/Lot-15-Rose-Ave-21061/home/177078187,BRIGHT MLS,MDAA2013880,N,Y,39.15526038,-76.63913231
MLS Listing,,Townhouse,6612 Desiree Ct,Alexandria,VA,22315,545000,2,3.0,ISLAND CREEK SEC,1796,1742,1995,1,303,102,Active,November-7-2021 01:00 PM,November-7-2021 03:00 PM,http://www.redfin.com/VA/Alexandria/6612-Desiree-Ct-22315/home/9807457,BRIGHT MLS,VAFX2029530,N,Y,38.7468379,-77.170564
MLS Listing,,Single Family Residential,8610 Bells Ml,Rockville,MD,20854,999000,3,2.0,WINDSOR HILLS,1813,19819,1961,1,551,,Active,,,http://www.redfin.com/MD/Rockville/8610-Bells-Mill-Rd-20854/home/10899639,BRIGHT MLS,MDMC2022182,N,Y,39.0302413,-77.1746903
MLS Listing,,Single Family Residential,9 Hilltop Rd,Silver Spring,MD,20910,899000,4,2.5,SLIGO PARK HILLS,2096,7246,1930,1,429,,Active,November-6-2021 12:00 PM,November-6-2021 02:00 PM,http://www.redfin.com/MD/Silver-Spring/9-Hilltop-Rd-20910/home/10970427,BRIGHT MLS,MDMC2021918,N,Y,38.9896932,-77.0099126
MLS Listing,,Townhouse,1139 Colonial Ave,Alexandria,VA,22314,560000,2,1.0,WESTOVER,1248,2470,1930,1,449,,Active,,,http://www.redfin.com/VA/Alexandria/1139-Colonial-Ave-22314/home/11840403,BRIGHT MLS,VAAX2005300,N,Y,38.8176429,-77.047905
MLS Listing,,Single Family Residential,3563 N Abingdon St,Arlington,VA,22207,3699000,6,6.5,COUNTRY CLUB HILLS,6487,19747,2022,1,570,,Active,,,http://www.redfin.com/VA/Arlington/3563-N-Abingdon-St-22207/home/11229524,BRIGHT MLS,VAAR2006784,N,Y,38.9142111,-77.1334834
MLS Listing,,Single Family Residential,5 Argosy Ct,Gaithersburg,MD,20878,899999,4,3.5,WASHINGTONIAN WOODS,4538,9027,1989,1,198,6,Active,November-6-2021 01:00 PM,November-6-2021 04:00 PM,http://www.redfin.com/MD/Gaithersburg/5-Argosy-Ct-20878/home/10853824,BRIGHT MLS,MDMC2021532,N,Y,39.1056344,-77.2237649
MLS Listing,,Townhouse,533 Cameron Station Blvd,Alexandria,VA,22304,499950,2,2.5,WOODLAND HALL AT CAMERN,1214,,1999,1,412,339,Active,November-7-2021 02:00 PM,November-7-2021 04:00 PM,http://www.redfin.com/VA/Alexandria/533-Cameron-Station-Blvd-22304/home/11876233,BRIGHT MLS,VAAX2005294,N,Y,38.8059122,-77.1281989
MLS Listing,,Single Family Residential,11006 Easecrest Dr,Silver Spring,MD,20902,540000,3,2.5,WHEATON OUT RES. (2),1414,11471,1957,1,382,,Active,,,http://www.redfin.com/MD/Silver-Spring/11006-Easecrest-Dr-20902/home/10951909,BRIGHT MLS,MDMC2022172,N,Y,39.0385821,-77.0395577
MLS Listing,,Townhouse,5847 Banning,Burke,VA,22015,575000,3,3.5,BURKE STATION SQUARE,2306,2600,1973,1,249,65,Active,November-7-2021 02:30 PM,November-7-2021 04:00 PM,http://www.redfin.com/VA/Burke/5847-Banning-Pl-22015/home/9735584,BRIGHT MLS,VAFX2029288,N,Y,38.79292,-77.2544
MLS Listing,,Single Family Residential,920 N Quesada St,Arlington,VA,22205,1995000,6,6.0,MADISON MANOR,7081,8460,2019,1,282,,Active,November-7-2021 01:00 PM,November-7-2021 03:00 PM,http://www.redfin.com/VA/Arlington/920-N-Quesada-St-22205/home/11240545,BRIGHT MLS,VAAR2007014,N,Y,38.8758049,-77.1497971
MLS Listing,,Condo/Co-op,4100 Cathedral Ave NW #812,Washington,DC,20016,649000,1,1.5,OBSERVATORY CIRCLE,1273,,1966,1,510,1287,Active,,,http://www.redfin.com/DC/Washington/4100-Cathedral-Ave-NW-20016/unit-812/home/9963804,BRIGHT MLS,DCDC2019630,N,Y,38.9296454,-77.0804597
MLS Listing,,Single Family Residential,512 1/2 S Pitt St,Alexandria,VA,22314,1399000,4,3.5,YATES GARDENS,2051,1845,1967,1,682,,Active,,,http://www.redfin.com/VA/Alexandria/512-1-2-N-Pitt-St-22314/unit-ALLEY/home/145733344,BRIGHT MLS,VAAX2005268,N,Y,38.799754,-77.045483
MLS Listing,,Townhouse,1462 Chapin St NW #2,Washington,DC,20009,425000,1,1.0,COLUMBIA HEIGHTS,600,,2021,1,708,157,Active,,,http://www.redfin.com/DC/Washington/1462-Chapin-St-NW-20009/unit-2/home/176685353,BRIGHT MLS,DCDC2020076,N,Y,38.921235,-77.034049
MLS Listing,,Single Family Residential,3808 Westgate Dr,Alexandria,VA,22309,625000,4,3.0,WESTGATE,2478,20000,1962,1,252,,Active,,,http://www.redfin.com/VA/Alexandria/3808-Westgate-Dr-22309/home/9826462,BRIGHT MLS,VAFX2029092,N,Y,38.7116615,-77.0984666
MLS Listing,,Single Family Residential,1 Noyes Ct,Silver Spring,MD,20910,800000,4,3.0,WOODSIDE PARK,3048,6422,1950,1,262,,Active,November-7-2021 01:00 PM,November-7-2021 03:00 PM,http://www.redfin.com/MD/Silver-Spring/1-Noyes-Ct-20910/home/177076362,BRIGHT MLS,MDMC2022016,N,Y,39.0009154,-77.0254427
MLS Listing,,Single Family Residential,8113 Tulip Poplar Ct,Severn,MD,21144,974990,5,5.5,MIKLASZ PROPERTY,6773,20967,2017,1,144,125,Active,November-7-2021 01:00 PM,November-7-2021 03:00 PM,http://www.redfin.com/MD/Severn/8113-Tulip-Poplar-Ct-21144/home/143870737,BRIGHT MLS,MDAA2012468,N,Y,39.1235589,-76.7196795
MLS Listing,,Single Family Residential,3108 Chestnut St NE,Washington,DC,20018,815000,4,2.0,WOODRIDGE,1788,3119,1935,1,456,,Active,,,http://www.redfin.com/DC/Washington/3108-Chestnut-St-NE-20018/home/10106591,BRIGHT MLS,DCDC2020064,N,Y,38.9310004,-76.9606716
MLS Listing,,Single Family Residential,2315 N Florida St,Arlington,VA,22207,1000000,3,2.5,COUNTRY CLUB,2113,8153,1940,1,473,,Active,November-7-2021 01:00 PM,November-7-2021 03:00 PM,http://www.redfin.com/VA/Arlington/2315-N-Florida-St-22207/home/11228220,BRIGHT MLS,VAAR2006690,N,Y,38.8975337,-77.1343823
MLS Listing,,Single Family Residential,3406 Lowell St NW,Washington,DC,20016,2395000,5,3.5,CLEVELAND PARK,3409,6300,1927,1,703,,Active,November-6-2021 02:00 PM,November-6-2021 04:00 PM,http://www.redfin.com/DC/Washington/3406-Lowell-St-NW-20016/home/9985814,BRIGHT MLS,DCDC2019760,N,Y,38.9323418,-77.067127
MLS Listing,,Single Family Residential,7109 Redmiles Rd,Laurel,MD,20707,519000,5,3.0,ROCKY GORGE ESTATES,1760,20769,1969,1,295,,Active,,,http://www.redfin.com/MD/Laurel/7109-Redmiles-Rd-20707/home/10717002,BRIGHT MLS,MDPG2014902,N,Y,39.1095929,-76.8826699
MLS Listing,,Townhouse,2016 2nd St NW Unit A,Washington,DC,20001,750000,2,2.5,LEDROIT PARK,1340,,2021,1,560,216,Active,November-6-2021 02:00 PM,November-6-2021 04:00 PM,http://www.redfin.com/DC/Washington/2016-2nd-St-NW-20001/unit-A/home/177075703,BRIGHT MLS,DCDC2020020,N,Y,38.918314,-77.015001
MLS Listing,,Townhouse,2117 Tunlaw Rd NW,Washington,DC,20007,1450000,3,4.0,GLOVER PARK,2982,2831,1928,1,486,,Active,November-7-2021 02:00 PM,November-7-2021 04:00 PM,http://www.redfin.com/DC/Washington/2117-Tunlaw-Rd-NW-20007/home/9933526,BRIGHT MLS,DCDC2019894,N,Y,38.9189356,-77.0724333
MLS Listing,,Single Family Residential,13 Midway Ave,Laurel,MD,20723,74900,3,2.0,MIDWAY MOBILE VILLAGE,1450,,1998,1,52,,Active,,,http://www.redfin.com/MD/Laurel/13-Midway-Ave-20723/home/12050511,BRIGHT MLS,MDHW2006674,N,Y,39.1082112,-76.8350821
MLS Listing,,Townhouse,1542 D St SE,Washington,DC,20003,699900,2,2.0,OLD CITY I,922,808,1913,1,759,,Active,November-6-2021 02:00 PM,November-6-2021 04:00 PM,http://www.redfin.com/DC/Washington/1542-D-St-SE-20003/home/9919030,BRIGHT MLS,DCDC2019584,N,Y,38.884315,-76.982471
MLS Listing,,Townhouse,2941 Stella Blue Ln,Fairfax,VA,22031,1069000,3,3.5,MOSAIC AT MERRIFIELD,1930,1127,2012,1,554,204,Active,November-6-2021 12:00 PM,November-6-2021 02:00 PM,http://www.redfin.com/VA/Fairfax/2941-Stella-Blue-Ln-22031/home/45357272,BRIGHT MLS,VAFX2029452,N,Y,38.8705198,-77.2319271
MLS Listing,,Condo/Co-op,12307 Braxfield Ct #13,North Bethesda,MD,20852,199000,2,1.0,BETHESDA PARK,1007,,1970,1,198,596,Active,,,http://www.redfin.com/MD/North-Bethesda/12307-Braxfield-Ct-20852/unit-13/home/176544799,BRIGHT MLS,MDMC2021720,N,Y,39.0584955,-77.1051063
MLS Listing,,Condo/Co-op,3406 Bitterwood Pl Unit J203,Laurel,MD,20724,249000,2,2.0,RUSSETT,1208,,1994,1,206,374,Active,,,http://www.redfin.com/MD/Laurel/3406-Bitterwood-Pl-20724/unit-J203/home/10370370,BRIGHT MLS,MDAA2012762,N,Y,39.1048792,-76.8013089
MLS Listing,,Townhouse,1444 Harvard St NW #202,Washington,DC,20009,470000,1,1.5,COLUMBIA HEIGHTS,795,,2021,1,591,167,Active,November-7-2021 01:00 PM,November-7-2021 03:00 PM,http://www.redfin.com/DC/Washington/1444-Harvard-St-NW-20009/unit-202/home/177074788,BRIGHT MLS,DCDC2020060,N,Y,38.9261781,-77.0341488
MLS Listing,,Townhouse,1656 Gales St NE,Washington,DC,20002,789000,3,2.0,OLD CITY I,1500,1218,1925,1,526,,Active,November-6-2021 02:00 PM,November-6-2021 04:00 PM,http://www.redfin.com/DC/Washington/1656-Gales-St-NE-20002/home/10112278,BRIGHT MLS,DCDC2019576,N,Y,38.8982895,-76.9799451
MLS Listing,,Condo/Co-op,2737 Devonshire Pl NW #115,Washington,DC,20008,224900,0,1.0,GARFIELD,461,,1929,1,488,388,Active,November-6-2021 02:00 PM,November-6-2021 04:00 PM,http://www.redfin.com/DC/Washington/2737-Devonshire-Pl-NW-20008/unit-115/home/9986562,BRIGHT MLS,DCDC2019586,N,Y,38.9314343,-77.0577956
MLS Listing,,Townhouse,625 Pommander Walk,Alexandria,VA,22314,1615000,4,3.5,POMMANDER,2457,2081,1971,1,657,,Active,November-6-2021 02:00 PM,November-6-2021 04:00 PM,http://www.redfin.com/VA/Alexandria/625-Pommander-Walk-St-22314/home/11842506,BRIGHT MLS,VAAX2005002,N,Y,38.7978631,-77.0423805
MLS Listing,,Townhouse,5808 Madaket Rd,Bethesda,MD,20816,1200000,4,3.5,BROOKMONT,3886,3827,1989,1,309,650,Active,November-7-2021 02:00 PM,November-7-2021 04:00 PM,http://www.redfin.com/MD/Bethesda/5808-Madaket-Rd-20816/home/10697776,BRIGHT MLS,MDMC2021238,N,Y,38.943777,-77.118181
MLS Listing,,Condo/Co-op,811 4th St NW #810,Washington,DC,20001,599900,2,2.0,MOUNT VERNON,881,,2007,1,681,673,Active,November-6-2021 01:00 PM,November-6-2021 03:00 PM,http://www.redfin.com/DC/Washington/811-4th-St-NW-20001/unit-810/home/12532187,BRIGHT MLS,DCDC2019724,N,Y,38.9010047,-77.0159186
MLS Listing,,Single Family Residential,504 Randolph St,Falls Church,VA,22046,625000,4,2.0,FALLS PARK,1200,6120,1942,1,521,,Active,,,http://www.redfin.com/VA/Falls-Church/504-Randolph-St-22046/home/12035536,BRIGHT MLS,VAFA2000352,N,Y,38.8870329,-77.1875393
MLS Listing,,Condo/Co-op,3619 Georgia Ave NW #404,Washington,DC,20010,405000,1,1.0,PARK VIEW,514,,2021,1,788,197,Active,,,http://www.redfin.com/DC/Washington/3619-Georgia-Ave-NW-20010/unit-404/home/177074652,BRIGHT MLS,DCDC2020052,N,Y,38.9350672,-77.023828
MLS Listing,,Condo/Co-op,1423 R St NW #205,Washington,DC,20009,795000,2,2.0,OLD CITY II,1255,,1925,1,633,510,Active,November-6-2021 02:00 PM,November-6-2021 04:00 PM,http://www.redfin.com/DC/Washington/1423-R-St-NW-20009/unit-205/home/10176009,BRIGHT MLS,DCDC2019466,N,Y,38.9128892,-77.0331238
MLS Listing,,Single Family Residential,7310 Edmonston Rd,College Park,MD,20740,535000,3,1.5,YARROW,1320,21073,1951,1,405,,Active,November-7-2021 12:00 PM,November-7-2021 02:00 PM,http://www.redfin.com/MD/College-Park/7310-Edmonston-Rd-20740/home/11101188,BRIGHT MLS,MDPG2016716,N,Y,38.9775838,-76.9135946
MLS Listing,,Single Family Residential,9525 Leesburg Pike,Vienna,VA,22182,3120000,4,1.0,KENMORE,13563,212137,1972,1,230,,Active,,,http://www.redfin.com/VA/Vienna/9525-Leesburg-Pike-22182/home/177074616,BRIGHT MLS,VAFX2028432,N,Y,38.9580725,-77.2779143
MLS Listing,,Condo/Co-op,150 V St NW Unit V209,Washington,DC,20001,489900,1,1.0,LEDROIT PARK,745,,2006,1,658,463,Active,November-6-2021 12:00 PM,November-6-2021 02:00 PM,http://www.redfin.com/DC/Washington/150-V-St-NW-20001/unit-V209/home/12530651,BRIGHT MLS,DCDC2019872,N,Y,38.9179149,-77.0142991
MLS Listing,,Condo/Co-op,2363 Champlain St NW Unit A,Washington,DC,20009,649555,2,2.5,MOUNT PLEASANT,1199,,2001,1,542,350,Active,November-7-2021 02:00 PM,November-7-2021 04:00 PM,http://www.redfin.com/DC/Washington/2363-Champlain-St-NW-20009/unit-A/home/10184038,BRIGHT MLS,DCDC2019766,N,Y,38.9220468,-77.0410195
MLS Listing,,Townhouse,4647 Charger Pl,Chantilly,VA,20151,746950,3,4.5,COMMONWEALTH PLACE,2252,1000,2022,1,332,99,Active,,,http://www.redfin.com/VA/Chantilly/4647-Charger-Pl-20151/home/172391399,BRIGHT MLS,VAFX2029532,N,Y,38.8791386,-77.4423748
MLS Listing,,Townhouse,2807 Aquarius Ave,Silver Spring,MD,20906,450000,4,2.0,AQUARIUS AT BEL PRE,1435,8078,1972,1,314,28,Active,,,http://www.redfin.com/MD/Silver-Spring/2807-Aquarius-Ave-20906/home/11089166,BRIGHT MLS,MDMC2020670,N,Y,39.1008179,-77.057734
MLS Listing,,Condo/Co-op,3619 Georgia Ave NW #405,Washington,DC,20010,405000,1,1.0,PARK VIEW,514,,2021,1,788,185,Active,,,http://www.redfin.com/DC/Washington/3619-Georgia-Ave-NW-20010/unit-405/home/174926404,BRIGHT MLS,DCDC2020048,N,Y,38.9350659,-77.0238475
